{
"type": "FeatureCollection",
"name": "sdot_locations",
"features": [
{ "type": "Feature", "properties": { "SerialNum": "OC3CL2000086", "Gu": "동작구", "Address": "서울특별시 동작구 상도1동 745-1", "Height": 4.3, "Ylat": 37.5026605, "Xlon": 126.9477157, "coords": "(126.9477157, 37.5026605)" }, "geometry": { "type": "Point", "coordinates": [ 126.9477157, 37.5026605 ] } },
{ "type": "Feature", "properties": { "SerialNum": "OC3CL2000087", "Gu": "동작구", "Address": "서울특별시 동작구 사당동 712-8", "Height": 5.3, "Ylat": 37.4843759, "Xlon": 126.9477157, "coords": "(126.9477157, 37.4843759)" }, "geometry": { "type": "Point", "coordinates": [ 126.9477157, 37.4843759 ] } },
{ "type": "Feature", "properties": { "SerialNum": "OC3CL2000088", "Gu": "동작구", "Address": "서울특별시 동작구 상도로 65", "Height": 6.3, "Ylat": 37.4940742, "Xlon": 126.9558535, "coords": "(126.9558535, 37.4940742)" }, "geometry": { "type": "Point", "coordinates": [ 126.9558535, 37.4940742 ] } },
{ "type": "Feature", "properties": { "SerialNum": "OC3CL2000089", "Gu": "동작구", "Address": "서울특별시 동작구 상도동 514", "Height": 7.3, "Ylat": 37.4957957, "Xlon": 126.9540341, "coords": "(126.9540341, 37.4957957)" }, "geometry": { "type": "Point", "coordinates": [ 126.9540341, 37.4957957 ] } },
{ "type": "Feature", "properties": { "SerialNum": "OC3CL2000090", "Gu": "동작구", "Address": "서울특별시 동작구 상도동 370-2", "Height": 8.3, "Ylat": 37.5049292, "Xlon": 126.9388382, "coords": "(126.9388382, 37.5049292)" }, "geometry": { "type": "Point", "coordinates": [ 126.9388382, 37.5049292 ] } },
{ "type": "Feature", "properties": { "SerialNum": "OC3CL200010", "Gu": "서울대공원", "Address": "서울대공원 동물원 매표소", "Height": 3.5, "Ylat": 37.42877164, "Xlon": 127.0160739, "coords": "(127.0160739, 37.42877164)" }, "geometry": { "type": "Point", "coordinates": [ 127.0160739, 37.42877164 ] } },
{ "type": "Feature", "properties": { "SerialNum": "OC3CL200011", "Gu": "서울대공원", "Address": "서울대공원 동물원 맹수사", "Height": 4.0, "Ylat": 37.42201307, "Xlon": 127.0242658, "coords": "(127.0242658, 37.42201307)" }, "geometry": { "type": "Point", "coordinates": [ 127.0242658, 37.42201307 ] } },
{ "type": "Feature", "properties": { "SerialNum": "OC3CL200012", "Gu": "광진구", "Address": "서울특별시 광진구 화양동 34-75", "Height": 4.0, "Ylat": 37.54400194, "Xlon": 127.0697313, "coords": "(127.0697313, 37.54400194)" }, "geometry": { "type": "Point", "coordinates": [ 127.0697313, 37.54400194 ] } },
{ "type": "Feature", "properties": { "SerialNum": "OC3CL200013", "Gu": "종로구", "Address": "서울특별시 종로구 삼청동 35-63", "Height": 3.0, "Ylat": 37.58346942, "Xlon": 126.9826224, "coords": "(126.9826224, 37.58346942)" }, "geometry": { "type": "Point", "coordinates": [ 126.9826224, 37.58346942 ] } },
{ "type": "Feature", "properties": { "SerialNum": "OC3CL200014", "Gu": "중구", "Address": "서울특별시 중구 명동1가 53-1", "Height": 3.3, "Ylat": 37.56357368, "Xlon": 126.9845038, "coords": "(126.9845038, 37.56357368)" }, "geometry": { "type": "Point", "coordinates": [ 126.9845038, 37.56357368 ] } },
{ "type": "Feature", "properties": { "SerialNum": "OC3CL200015", "Gu": "강남구", "Address": "서울특별시 강남구 신사동 532-12", "Height": 3.4, "Ylat": 37.52338411, "Xlon": 127.0224148, "coords": "(127.0224148, 37.52338411)" }, "geometry": { "type": "Point", "coordinates": [ 127.0224148, 37.52338411 ] } },
{ "type": "Feature", "properties": { "SerialNum": "OC3CL200016", "Gu": "강남구", "Address": "서울특별시 강남구 신사동 657-37", "Height": 3.8, "Ylat": 37.52588867, "Xlon": 127.0391258, "coords": "(127.0391258, 37.52588867)" }, "geometry": { "type": "Point", "coordinates": [ 127.0391258, 37.52588867 ] } },
{ "type": "Feature", "properties": { "SerialNum": "OC3CL200017", "Gu": "강동구", "Address": "서울특별시 강동구 성내동 448-8", "Height": 4.5, "Ylat": 37.52411075, "Xlon": 127.1286688, "coords": "(127.1286688, 37.52411075)" }, "geometry": { "type": "Point", "coordinates": [ 127.1286688, 37.52411075 ] } },
{ "type": "Feature", "properties": { "SerialNum": "OC3CL200018", "Gu": "성동구", "Address": "서울특별시 성동구 성수동1가 685-285", "Height": 3.6, "Ylat": 37.54688198, "Xlon": 127.0416428, "coords": "(127.0416428, 37.54688198)" }, "geometry": { "type": "Point", "coordinates": [ 127.0416428, 37.54688198 ] } },
{ "type": "Feature", "properties": { "SerialNum": "OC3CL200019", "Gu": "용산구", "Address": "서울특별시 용산구 이태원동 239-4", "Height": 3.2, "Ylat": 37.54026442, "Xlon": 126.9937934, "coords": "(126.9937934, 37.54026442)" }, "geometry": { "type": "Point", "coordinates": [ 126.9937934, 37.54026442 ] } },
{ "type": "Feature", "properties": { "SerialNum": "OC3CL200020", "Gu": "강남구", "Address": "서울특별시 강남구 역삼동 814-6", "Height": 3.3, "Ylat": 37.50127401, "Xlon": 127.0263768, "coords": "(127.0263768, 37.50127401)" }, "geometry": { "type": "Point", "coordinates": [ 127.0263768, 37.50127401 ] } },
{ "type": "Feature", "properties": { "SerialNum": "OC3CL200021", "Gu": "강남구", "Address": "서울특별시 강남구 신사동 581-6", "Height": 4.5, "Ylat": 37.52553243, "Xlon": 127.0282295, "coords": "(127.0282295, 37.52553243)" }, "geometry": { "type": "Point", "coordinates": [ 127.0282295, 37.52553243 ] } },
{ "type": "Feature", "properties": { "SerialNum": "OC3CL200022", "Gu": "강남구", "Address": "서울특별시 강남구 대치동 889-45", "Height": 3.7, "Ylat": 37.50309199, "Xlon": 127.0498755, "coords": "(127.0498755, 37.50309199)" }, "geometry": { "type": "Point", "coordinates": [ 127.0498755, 37.50309199 ] } },
{ "type": "Feature", "properties": { "SerialNum": "OC3CL200023", "Gu": "강남구", "Address": "서울특별시 강남구 대치동 890-57", "Height": 3.7, "Ylat": 37.50359652, "Xlon": 127.0515922, "coords": "(127.0515922, 37.50359652)" }, "geometry": { "type": "Point", "coordinates": [ 127.0515922, 37.50359652 ] } },
{ "type": "Feature", "properties": { "SerialNum": "OC3CL200024", "Gu": "강남구", "Address": "서울특별시 강남구 신사동 541-17", "Height": 3.4, "Ylat": 37.51839242, "Xlon": 127.0234226, "coords": "(127.0234226, 37.51839242)" }, "geometry": { "type": "Point", "coordinates": [ 127.0234226, 37.51839242 ] } },
{ "type": "Feature", "properties": { "SerialNum": "OC3CL200025", "Gu": "강서구", "Address": "서울특별시 강서구 마곡동 727-709", "Height": 3.8, "Ylat": 37.56003441, "Xlon": 126.8258759, "coords": "(126.8258759, 37.56003441)" }, "geometry": { "type": "Point", "coordinates": [ 126.8258759, 37.56003441 ] } },
{ "type": "Feature", "properties": { "SerialNum": "OC3CL200026", "Gu": "강서구", "Address": "서울특별시 강서구 마곡동 367-11", "Height": 3.9, "Ylat": 37.56668094, "Xlon": 126.8261217, "coords": "(126.8261217, 37.56668094)" }, "geometry": { "type": "Point", "coordinates": [ 126.8261217, 37.56668094 ] } },
{ "type": "Feature", "properties": { "SerialNum": "OC3CL200027", "Gu": "강서구", "Address": "서울특별시 강서구 마곡동 727-1214", "Height": 3.9, "Ylat": 37.55904218, "Xlon": 126.8360833, "coords": "(126.8360833, 37.55904218)" }, "geometry": { "type": "Point", "coordinates": [ 126.8360833, 37.55904218 ] } },
{ "type": "Feature", "properties": { "SerialNum": "OC3CL200028", "Gu": "관악구", "Address": "서울특별시 관악구 봉천동 1603-4", "Height": 3.9, "Ylat": 37.47915422, "Xlon": 126.9537097, "coords": "(126.9537097, 37.47915422)" }, "geometry": { "type": "Point", "coordinates": [ 126.9537097, 37.47915422 ] } },
{ "type": "Feature", "properties": { "SerialNum": "OC3CL200029", "Gu": "광진구", "Address": "서울특별시 광진구 구의동 246-8", "Height": 4.5, "Ylat": 37.53768025, "Xlon": 127.0852125, "coords": "(127.0852125, 37.53768025)" }, "geometry": { "type": "Point", "coordinates": [ 127.0852125, 37.53768025 ] } },
{ "type": "Feature", "properties": { "SerialNum": "OC3CL200030", "Gu": "도봉구", "Address": "서울특별시 도봉구 창동 57-11", "Height": 3.5, "Ylat": 37.64583144, "Xlon": 127.05039, "coords": "(127.05039, 37.64583144)" }, "geometry": { "type": "Point", "coordinates": [ 127.05039, 37.64583144 ] } },
{ "type": "Feature", "properties": { "SerialNum": "OC3CL200031", "Gu": "서대문구", "Address": "서울특별시 서대문구 홍제동 286-27", "Height": 3.0, "Ylat": 37.59822113, "Xlon": 126.9490369, "coords": "(126.9490369, 37.59822113)" }, "geometry": { "type": "Point", "coordinates": [ 126.9490369, 37.59822113 ] } },
{ "type": "Feature", "properties": { "SerialNum": "OC3CL200032", "Gu": "성동구", "Address": "서울특별시 성동구 성수동1가 685-700", "Height": 3.7, "Ylat": 37.54529625, "Xlon": 127.0435571, "coords": "(127.0435571, 37.54529625)" }, "geometry": { "type": "Point", "coordinates": [ 127.0435571, 37.54529625 ] } },
{ "type": "Feature", "properties": { "SerialNum": "OC3CL200033", "Gu": "송파구", "Address": "서울특별시 송파구 신천동 32", "Height": 3.8, "Ylat": 37.51214275, "Xlon": 127.1043154, "coords": "(127.1043154, 37.51214275)" }, "geometry": { "type": "Point", "coordinates": [ 127.1043154, 37.51214275 ] } },
{ "type": "Feature", "properties": { "SerialNum": "OC3CL200034", "Gu": "양천구", "Address": "서울특별시 양천구 신정동 994-1", "Height": 4.0, "Ylat": 37.52591806, "Xlon": 126.8635581, "coords": "(126.8635581, 37.52591806)" }, "geometry": { "type": "Point", "coordinates": [ 126.8635581, 37.52591806 ] } },
{ "type": "Feature", "properties": { "SerialNum": "OC3CL200035", "Gu": "은평구", "Address": "서울특별시 은평구 갈현동 465-3", "Height": 3.4, "Ylat": 37.6113036, "Xlon": 126.917502, "coords": "(126.917502, 37.6113036)" }, "geometry": { "type": "Point", "coordinates": [ 126.917502, 37.6113036 ] } },
{ "type": "Feature", "properties": { "SerialNum": "OC3CL200036", "Gu": "은평구", "Address": "서울특별시 은평구 녹번동 153-46 ", "Height": 2.4, "Ylat": 37.60514575, "Xlon": 126.9235772, "coords": "(126.9235772, 37.60514575)" }, "geometry": { "type": "Point", "coordinates": [ 126.9235772, 37.60514575 ] } },
{ "type": "Feature", "properties": { "SerialNum": "OC3CL200037", "Gu": "종로구", "Address": "서울특별시 종로구 가회동 60", "Height": 4.0, "Ylat": 37.58142997, "Xlon": 126.9846468, "coords": "(126.9846468, 37.58142997)" }, "geometry": { "type": "Point", "coordinates": [ 126.9846468, 37.58142997 ] } },
{ "type": "Feature", "properties": { "SerialNum": "OC3CL200038", "Gu": "종로구", "Address": "서울특별시 종로구 가회동 33-13", "Height": 3.3, "Ylat": 37.58233107, "Xlon": 126.983559, "coords": "(126.983559, 37.58233107)" }, "geometry": { "type": "Point", "coordinates": [ 126.983559, 37.58233107 ] } },
{ "type": "Feature", "properties": { "SerialNum": "OC3CL200039", "Gu": "종로구", "Address": "서울특별시 종로구 동숭동 50-135", "Height": 2.4, "Ylat": 37.57878614, "Xlon": 127.0071882, "coords": "(127.0071882, 37.57878614)" }, "geometry": { "type": "Point", "coordinates": [ 127.0071882, 37.57878614 ] } },
{ "type": "Feature", "properties": { "SerialNum": "OC3CL200040", "Gu": "종로구", "Address": "서울특별시 종로구 이화동 9-498", "Height": 3.0, "Ylat": 37.5777396, "Xlon": 127.0080332, "coords": "(127.0080332, 37.5777396)" }, "geometry": { "type": "Point", "coordinates": [ 127.0080332, 37.5777396 ] } },
{ "type": "Feature", "properties": { "SerialNum": "OC3CL200041", "Gu": "중구", "Address": "서울특별시 중구 남대문로2가 123", "Height": 4.5, "Ylat": 37.56384606, "Xlon": 126.9818665, "coords": "(126.9818665, 37.56384606)" }, "geometry": { "type": "Point", "coordinates": [ 126.9818665, 37.56384606 ] } },
{ "type": "Feature", "properties": { "SerialNum": "OC3CL200042", "Gu": "중구", "Address": "서울특별시 중구 을지로6가 18-185", "Height": 4.1, "Ylat": 37.56786992, "Xlon": 127.0086311, "coords": "(127.0086311, 37.56786992)" }, "geometry": { "type": "Point", "coordinates": [ 127.0086311, 37.56786992 ] } },
{ "type": "Feature", "properties": { "SerialNum": "OC3CL200043", "Gu": "중구", "Address": "서울특별시 중구 신당동 204-9", "Height": 4.1, "Ylat": 37.56772879, "Xlon": 127.0126695, "coords": "(127.0126695, 37.56772879)" }, "geometry": { "type": "Point", "coordinates": [ 127.0126695, 37.56772879 ] } },
{ "type": "Feature", "properties": { "SerialNum": "OC3CL200044", "Gu": "중구", "Address": "서울특별시 중구 남창동 31-1", "Height": 3.4, "Ylat": 37.56040912, "Xlon": 126.978669, "coords": "(126.978669, 37.56040912)" }, "geometry": { "type": "Point", "coordinates": [ 126.978669, 37.56040912 ] } },
{ "type": "Feature", "properties": { "SerialNum": "OC3CL200045", "Gu": "강서구", "Address": "서울특별시 강서구 방화동 830-9", "Height": 2.8, "Ylat": 37.57782669, "Xlon": 126.8133372, "coords": "(126.8133372, 37.57782669)" }, "geometry": { "type": "Point", "coordinates": [ 126.8133372, 37.57782669 ] } },
{ "type": "Feature", "properties": { "SerialNum": "OC3CL200046", "Gu": "강서구", "Address": "서울특별시 강서구 등촌3동 78-7", "Height": 3.6, "Ylat": 37.56053576, "Xlon": 126.8547068, "coords": "(126.8547068, 37.56053576)" }, "geometry": { "type": "Point", "coordinates": [ 126.8547068, 37.56053576 ] } },
{ "type": "Feature", "properties": { "SerialNum": "OC3CL200047", "Gu": "중구", "Address": "서울특별시 중구 충무로2가 65-3", "Height": 4.5, "Ylat": 37.56160433, "Xlon": 126.985559, "coords": "(126.985559, 37.56160433)" }, "geometry": { "type": "Point", "coordinates": [ 126.985559, 37.56160433 ] } },
{ "type": "Feature", "properties": { "SerialNum": "OC3CL200048", "Gu": "도봉구", "Address": "서울특별시 도봉구 창동 134-22", "Height": 3.2, "Ylat": 37.6535602, "Xlon": 127.0462197, "coords": "(127.0462197, 37.6535602)" }, "geometry": { "type": "Point", "coordinates": [ 127.0462197, 37.6535602 ] } },
{ "type": "Feature", "properties": { "SerialNum": "OC3CL200049", "Gu": "도봉구", "Address": "서울특별시 도봉구 창동 788-1", "Height": 4.4, "Ylat": 37.64258575, "Xlon": 127.052532, "coords": "(127.052532, 37.64258575)" }, "geometry": { "type": "Point", "coordinates": [ 127.052532, 37.64258575 ] } },
{ "type": "Feature", "properties": { "SerialNum": "OC3CL200050", "Gu": "도봉구", "Address": "서울특별시 도봉구 방학동 724-16", "Height": 3.3, "Ylat": 37.66184473, "Xlon": 127.0477197, "coords": "(127.0477197, 37.66184473)" }, "geometry": { "type": "Point", "coordinates": [ 127.0477197, 37.66184473 ] } },
{ "type": "Feature", "properties": { "SerialNum": "OC3CL200051", "Gu": "도봉구", "Address": "서울특별시 도봉구 쌍문동 88-144", "Height": 3.0, "Ylat": 37.64934955, "Xlon": 127.0348639, "coords": "(127.0348639, 37.64934955)" }, "geometry": { "type": "Point", "coordinates": [ 127.0348639, 37.64934955 ] } },
{ "type": "Feature", "properties": { "SerialNum": "OC3CL200052", "Gu": "도봉구", "Address": "서울특별시 도봉구 방학동 726-74", "Height": 3.4, "Ylat": 37.66621365, "Xlon": 127.0464686, "coords": "(127.0464686, 37.66621365)" }, "geometry": { "type": "Point", "coordinates": [ 127.0464686, 37.66621365 ] } },
{ "type": "Feature", "properties": { "SerialNum": "OC3CL200053", "Gu": "도봉구", "Address": "서울특별시 도봉구 창동 181-52", "Height": 3.6, "Ylat": 37.65690709, "Xlon": 127.0463949, "coords": "(127.0463949, 37.65690709)" }, "geometry": { "type": "Point", "coordinates": [ 127.0463949, 37.65690709 ] } },
{ "type": "Feature", "properties": { "SerialNum": "OC3CL200054", "Gu": "서초구", "Address": "서울특별시 서초구 양재동 14-6", "Height": 3.4, "Ylat": 37.48244974, "Xlon": 127.0373399, "coords": "(127.0373399, 37.48244974)" }, "geometry": { "type": "Point", "coordinates": [ 127.0373399, 37.48244974 ] } },
{ "type": "Feature", "properties": { "SerialNum": "OC3CL200055", "Gu": "서초구", "Address": "서울특별시 서초구 반포동 128-11", "Height": 3.6, "Ylat": 37.50089183, "Xlon": 127.0008701, "coords": "(127.0008701, 37.50089183)" }, "geometry": { "type": "Point", "coordinates": [ 127.0008701, 37.50089183 ] } },
{ "type": "Feature", "properties": { "SerialNum": "OC3CL200056", "Gu": "서초구", "Address": "서울특별시 서초구 방배2동 산190-2", "Height": 3.8, "Ylat": 37.46248315, "Xlon": 126.9883535, "coords": "(126.9883535, 37.46248315)" }, "geometry": { "type": "Point", "coordinates": [ 126.9883535, 37.46248315 ] } },
{ "type": "Feature", "properties": { "SerialNum": "OC3CL200057", "Gu": "금천구", "Address": "서울특별시 금천구 가산동 239-26", "Height": 4.5, "Ylat": 37.47468281, "Xlon": 126.8874063, "coords": "(126.8874063, 37.47468281)" }, "geometry": { "type": "Point", "coordinates": [ 126.8874063, 37.47468281 ] } },
{ "type": "Feature", "properties": { "SerialNum": "OC3CL200058", "Gu": "양천구", "Address": "서울특별시 양천구 목동 911-4", "Height": 4.3, "Ylat": 37.53245995, "Xlon": 126.8857541, "coords": "(126.8857541, 37.53245995)" }, "geometry": { "type": "Point", "coordinates": [ 126.8857541, 37.53245995 ] } },
{ "type": "Feature", "properties": { "SerialNum": "OC3CL200059", "Gu": "양천구", "Address": "서울특별시 양천구 신월동 42-1", "Height": 4.3, "Ylat": 37.53911722, "Xlon": 126.8240324, "coords": "(126.8240324, 37.53911722)" }, "geometry": { "type": "Point", "coordinates": [ 126.8240324, 37.53911722 ] } },
{ "type": "Feature", "properties": { "SerialNum": "OC3CL200060", "Gu": "강동구", "Address": "서울특별시 강동구 둔촌동 산 28-1", "Height": 4.1, "Ylat": 37.52221023, "Xlon": 127.1455199, "coords": "(127.1455199, 37.52221023)" }, "geometry": { "type": "Point", "coordinates": [ 127.1455199, 37.52221023 ] } },
{ "type": "Feature", "properties": { "SerialNum": "OC3CL200061", "Gu": "서울대공원", "Address": "서울대공원", "Height": 1.5, "Ylat": 37.4248203, "Xlon": 127.0196764, "coords": "(127.0196764, 37.4248203)" }, "geometry": { "type": "Point", "coordinates": [ 127.0196764, 37.4248203 ] } },
{ "type": "Feature", "properties": { "SerialNum": "OC3CL200062", "Gu": "강동구", "Address": "서울특별시 강동구 천호동 463-38", "Height": 4.3, "Ylat": 37.5419464, "Xlon": 127.1215875, "coords": "(127.1215875, 37.5419464)" }, "geometry": { "type": "Point", "coordinates": [ 127.1215875, 37.5419464 ] } },
{ "type": "Feature", "properties": { "SerialNum": "OC3CL200063", "Gu": "도봉구", "Address": "서울특별시 도봉구 방학동 264-44", "Height": 3.2, "Ylat": 37.66113377, "Xlon": 127.0363947, "coords": "(127.0363947, 37.66113377)" }, "geometry": { "type": "Point", "coordinates": [ 127.0363947, 37.66113377 ] } },
{ "type": "Feature", "properties": { "SerialNum": "OC3CL200064", "Gu": "양천구", "Address": "서울특별시 양천구 목동 554", "Height": 2.4, "Ylat": 37.54440989, "Xlon": 126.8704137, "coords": "(126.8704137, 37.54440989)" }, "geometry": { "type": "Point", "coordinates": [ 126.8704137, 37.54440989 ] } },
{ "type": "Feature", "properties": { "SerialNum": "OC3CL200065", "Gu": "서울대공원", "Address": "서울대공원", "Height": 1.4, "Ylat": 37.43436316, "Xlon": 127.0113356, "coords": "(127.0113356, 37.43436316)" }, "geometry": { "type": "Point", "coordinates": [ 127.0113356, 37.43436316 ] } },
{ "type": "Feature", "properties": { "SerialNum": "OC3CL200066", "Gu": "강북구", "Address": "서울특별시 강북구 미아동 754-63", "Height": 4.4, "Ylat": 37.62300566, "Xlon": 127.0218915, "coords": "(127.0218915, 37.62300566)" }, "geometry": { "type": "Point", "coordinates": [ 127.0218915, 37.62300566 ] } },
{ "type": "Feature", "properties": { "SerialNum": "OC3CL200067", "Gu": "강서구", "Address": "서울특별시 강서구 등촌동 366-70", "Height": 3.6, "Ylat": 37.54803257, "Xlon": 126.8606334, "coords": "(126.8606334, 37.54803257)" }, "geometry": { "type": "Point", "coordinates": [ 126.8606334, 37.54803257 ] } },
{ "type": "Feature", "properties": { "SerialNum": "OC3CL200068", "Gu": "동작구", "Address": "서울특별시 동작구 흑석동 211-32", "Height": 4.3, "Ylat": 37.50619475, "Xlon": 126.9551335, "coords": "(126.9551335, 37.50619475)" }, "geometry": { "type": "Point", "coordinates": [ 126.9551335, 37.50619475 ] } },
{ "type": "Feature", "properties": { "SerialNum": "OC3CL200069", "Gu": "은평구", "Address": "서울특별시 은평구 불광동 195", "Height": 3.4, "Ylat": 37.62220907, "Xlon": 126.9302785, "coords": "(126.9302785, 37.62220907)" }, "geometry": { "type": "Point", "coordinates": [ 126.9302785, 37.62220907 ] } },
{ "type": "Feature", "properties": { "SerialNum": "OC3CL200070", "Gu": "강동구", "Address": "서울특별시 강동구 성내동 459-6", "Height": 4.4, "Ylat": 37.5272027, "Xlon": 127.121662, "coords": "(127.121662, 37.5272027)" }, "geometry": { "type": "Point", "coordinates": [ 127.121662, 37.5272027 ] } },
{ "type": "Feature", "properties": { "SerialNum": "OC3CL200071", "Gu": "강동구", "Address": "서울특별시 강동구 고덕동 197-4", "Height": 4.2, "Ylat": 37.55941343, "Xlon": 127.1708168, "coords": "(127.1708168, 37.55941343)" }, "geometry": { "type": "Point", "coordinates": [ 127.1708168, 37.55941343 ] } },
{ "type": "Feature", "properties": { "SerialNum": "OC3CL200072", "Gu": "강동구", "Address": "서울특별시 강동구 암사동 139-2", "Height": 4.3, "Ylat": 37.55967518, "Xlon": 127.1312918, "coords": "(127.1312918, 37.55967518)" }, "geometry": { "type": "Point", "coordinates": [ 127.1312918, 37.55967518 ] } },
{ "type": "Feature", "properties": { "SerialNum": "OC3CL200073", "Gu": "동작구", "Address": "서울특별시 동작구 상도동 207-5", "Height": 3.8, "Ylat": 37.49928608, "Xlon": 126.9440571, "coords": "(126.9440571, 37.49928608)" }, "geometry": { "type": "Point", "coordinates": [ 126.9440571, 37.49928608 ] } },
{ "type": "Feature", "properties": { "SerialNum": "OC3CL200074", "Gu": "강동구", "Address": "서울특별시 강동구 천호동 42", "Height": 4.8, "Ylat": 37.54626753, "Xlon": 127.1430179, "coords": "(127.1430179, 37.54626753)" }, "geometry": { "type": "Point", "coordinates": [ 127.1430179, 37.54626753 ] } },
{ "type": "Feature", "properties": { "SerialNum": "OC3CL200075", "Gu": "서초구", "Address": "서울특별시 서초구 서초4동 1306-1", "Height": 3.7, "Ylat": 37.50061909, "Xlon": 127.0260189, "coords": "(127.0260189, 37.50061909)" }, "geometry": { "type": "Point", "coordinates": [ 127.0260189, 37.50061909 ] } },
{ "type": "Feature", "properties": { "SerialNum": "OC3CL200076", "Gu": "서초구", "Address": "서울특별시 서초구 서초3동 1579-9", "Height": 4.0, "Ylat": 37.48827084, "Xlon": 127.0139087, "coords": "(127.0139087, 37.48827084)" }, "geometry": { "type": "Point", "coordinates": [ 127.0139087, 37.48827084 ] } },
{ "type": "Feature", "properties": { "SerialNum": "OC3CL200077", "Gu": "서초구", "Address": "서울특별시 서초구 반포3동 75-21", "Height": 4.0, "Ylat": 37.50623299, "Xlon": 127.0042288, "coords": "(127.0042288, 37.50623299)" }, "geometry": { "type": "Point", "coordinates": [ 127.0042288, 37.50623299 ] } },
{ "type": "Feature", "properties": { "SerialNum": "OC3CL200078", "Gu": "서초구", "Address": "서울특별시 서초구 서초4동 1318-9", "Height": 4.1, "Ylat": 37.49793848, "Xlon": 127.0268137, "coords": "(127.0268137, 37.49793848)" }, "geometry": { "type": "Point", "coordinates": [ 127.0268137, 37.49793848 ] } },
{ "type": "Feature", "properties": { "SerialNum": "OC3CL200079", "Gu": "서초구", "Address": "서울특별시 서초구 방배4동 3001-2", "Height": 3.7, "Ylat": 37.48573247, "Xlon": 126.9833962, "coords": "(126.9833962, 37.48573247)" }, "geometry": { "type": "Point", "coordinates": [ 126.9833962, 37.48573247 ] } },
{ "type": "Feature", "properties": { "SerialNum": "OC3CL200080", "Gu": "강동구", "Address": "서울특별시 강동구 고덕동 317-1", "Height": 4.3, "Ylat": 37.5566477, "Xlon": 127.1448705, "coords": "(127.1448705, 37.5566477)" }, "geometry": { "type": "Point", "coordinates": [ 127.1448705, 37.5566477 ] } },
{ "type": "Feature", "properties": { "SerialNum": "OC3CL200081", "Gu": "강동구", "Address": "서울특별시 강동구 천호동 361", "Height": 4.7, "Ylat": 37.54514714, "Xlon": 127.1275513, "coords": "(127.1275513, 37.54514714)" }, "geometry": { "type": "Point", "coordinates": [ 127.1275513, 37.54514714 ] } },
{ "type": "Feature", "properties": { "SerialNum": "OC3CL200082", "Gu": "강서구", "Address": "서울특별시 강서구 개화동 418-194", "Height": 3.7, "Ylat": 37.58013454, "Xlon": 126.7999832, "coords": "(126.7999832, 37.58013454)" }, "geometry": { "type": "Point", "coordinates": [ 126.7999832, 37.58013454 ] } },
{ "type": "Feature", "properties": { "SerialNum": "OC3CL200083", "Gu": "강동구", "Address": "서울특별시 강동구 둔촌동 599", "Height": 4.0, "Ylat": 37.53182933, "Xlon": 127.1496707, "coords": "(127.1496707, 37.53182933)" }, "geometry": { "type": "Point", "coordinates": [ 127.1496707, 37.53182933 ] } },
{ "type": "Feature", "properties": { "SerialNum": "OC3CL200084", "Gu": "강동구", "Address": "서울특별시 강동구 천호동 326-18", "Height": 4.4, "Ylat": 37.54588985, "Xlon": 127.12371, "coords": "(127.12371, 37.54588985)" }, "geometry": { "type": "Point", "coordinates": [ 127.12371, 37.54588985 ] } },
{ "type": "Feature", "properties": { "SerialNum": "OC3CL200085", "Gu": "서초구", "Address": "서울특별시 서초구 반포1동 30-8 ", "Height": 2.8, "Ylat": 37.50205663, "Xlon": 127.0154344, "coords": "(127.0154344, 37.50205663)" }, "geometry": { "type": "Point", "coordinates": [ 127.0154344, 37.50205663 ] } },
{ "type": "Feature", "properties": { "SerialNum": "OC3CL200086", "Gu": "서대문구", "Address": "서울특별시 서대문구 홍은동 산26-155", "Height": 4.0, "Ylat": 37.58116901, "Xlon": 126.9321883, "coords": "(126.9321883, 37.58116901)" }, "geometry": { "type": "Point", "coordinates": [ 126.9321883, 37.58116901 ] } },
{ "type": "Feature", "properties": { "SerialNum": "OC3CL200087", "Gu": "강서구", "Address": "서울특별시 강서구 마곡동 728-356", "Height": 4.1, "Ylat": 37.55546881, "Xlon": 126.8266133, "coords": "(126.8266133, 37.55546881)" }, "geometry": { "type": "Point", "coordinates": [ 126.8266133, 37.55546881 ] } },
{ "type": "Feature", "properties": { "SerialNum": "OC3CL200088", "Gu": "도봉구", "Address": "서울특별시 도봉구 쌍문동 220", "Height": 3.5, "Ylat": 37.66028451, "Xlon": 127.0335996, "coords": "(127.0335996, 37.66028451)" }, "geometry": { "type": "Point", "coordinates": [ 127.0335996, 37.66028451 ] } },
{ "type": "Feature", "properties": { "SerialNum": "OC3CL200089", "Gu": "도봉구", "Address": "서울특별시 도봉구 쌍문동 산 240-5 ", "Height": 3.6, "Ylat": 37.65204049, "Xlon": 127.0270449, "coords": "(127.0270449, 37.65204049)" }, "geometry": { "type": "Point", "coordinates": [ 127.0270449, 37.65204049 ] } },
{ "type": "Feature", "properties": { "SerialNum": "OC3CL200090", "Gu": "강동구", "Address": "서울특별시 강동구 둔촌동 517-4", "Height": 4.6, "Ylat": 37.52871449, "Xlon": 127.1373889, "coords": "(127.1373889, 37.52871449)" }, "geometry": { "type": "Point", "coordinates": [ 127.1373889, 37.52871449 ] } },
{ "type": "Feature", "properties": { "SerialNum": "OC3CL200091", "Gu": "강동구", "Address": "서울특별시 강동구 상일동 283-6", "Height": 4.8, "Ylat": 37.54855912, "Xlon": 127.170907, "coords": "(127.170907, 37.54855912)" }, "geometry": { "type": "Point", "coordinates": [ 127.170907, 37.54855912 ] } },
{ "type": "Feature", "properties": { "SerialNum": "OC3CL200092", "Gu": "강동구", "Address": "서울특별시 강동구 암사동 265-7", "Height": 4.4, "Ylat": 37.55888187, "Xlon": 127.1356067, "coords": "(127.1356067, 37.55888187)" }, "geometry": { "type": "Point", "coordinates": [ 127.1356067, 37.55888187 ] } },
{ "type": "Feature", "properties": { "SerialNum": "OC3CL200093", "Gu": "강동구", "Address": "서울특별시 강동구 천호동 528-1", "Height": 4.3, "Ylat": 37.53821966, "Xlon": 127.134581, "coords": "(127.134581, 37.53821966)" }, "geometry": { "type": "Point", "coordinates": [ 127.134581, 37.53821966 ] } },
{ "type": "Feature", "properties": { "SerialNum": "OC3CL200094", "Gu": "강동구", "Address": "서울특별시 강동구 강일동 348-1", "Height": 4.6, "Ylat": 37.56913389, "Xlon": 127.1787659, "coords": "(127.1787659, 37.56913389)" }, "geometry": { "type": "Point", "coordinates": [ 127.1787659, 37.56913389 ] } },
{ "type": "Feature", "properties": { "SerialNum": "OC3CL200095", "Gu": "강동구", "Address": "서울특별시 강동구 길동 141-5", "Height": 4.1, "Ylat": 37.53662302, "Xlon": 127.1464696, "coords": "(127.1464696, 37.53662302)" }, "geometry": { "type": "Point", "coordinates": [ 127.1464696, 37.53662302 ] } },
{ "type": "Feature", "properties": { "SerialNum": "OC3CL200096", "Gu": "마포구", "Address": "서울특별시 마포구 망원동 403-5", "Height": 4.0, "Ylat": 37.55500134, "Xlon": 126.9053084, "coords": "(126.9053084, 37.55500134)" }, "geometry": { "type": "Point", "coordinates": [ 126.9053084, 37.55500134 ] } },
{ "type": "Feature", "properties": { "SerialNum": "OC3CL200097", "Gu": "강동구", "Address": "서울특별시 강동구 길동 338-9", "Height": 4.7, "Ylat": 37.5423736, "Xlon": 127.1437411, "coords": "(127.1437411, 37.5423736)" }, "geometry": { "type": "Point", "coordinates": [ 127.1437411, 37.5423736 ] } },
{ "type": "Feature", "properties": { "SerialNum": "OC3CL200098", "Gu": "강동구", "Address": "서울특별시 강동구 상일동 166", "Height": 4.8, "Ylat": 37.54961964, "Xlon": 127.1579314, "coords": "(127.1579314, 37.54961964)" }, "geometry": { "type": "Point", "coordinates": [ 127.1579314, 37.54961964 ] } },
{ "type": "Feature", "properties": { "SerialNum": "OC3CL200099", "Gu": "강동구", "Address": "서울특별시 강동구 성내동 519-12", "Height": 4.4, "Ylat": 37.53062449, "Xlon": 127.1284073, "coords": "(127.1284073, 37.53062449)" }, "geometry": { "type": "Point", "coordinates": [ 127.1284073, 37.53062449 ] } },
{ "type": "Feature", "properties": { "SerialNum": "OC3CL200100", "Gu": "강북구", "Address": "서울특별시 강북구 번동 95-7", "Height": 2.3, "Ylat": 37.61999399, "Xlon": 127.0437864, "coords": "(127.0437864, 37.61999399)" }, "geometry": { "type": "Point", "coordinates": [ 127.0437864, 37.61999399 ] } },
{ "type": "Feature", "properties": { "SerialNum": "OC3CL200101", "Gu": "강동구", "Address": "서울특별시 강동구 천호동 1-2", "Height": 4.8, "Ylat": 37.55048669, "Xlon": 127.1395816, "coords": "(127.1395816, 37.55048669)" }, "geometry": { "type": "Point", "coordinates": [ 127.1395816, 37.55048669 ] } },
{ "type": "Feature", "properties": { "SerialNum": "OC3CL200102", "Gu": "강동구", "Address": "서울특별시 강동구 천호동 290-39", "Height": 4.6, "Ylat": 37.54742334, "Xlon": 127.1312276, "coords": "(127.1312276, 37.54742334)" }, "geometry": { "type": "Point", "coordinates": [ 127.1312276, 37.54742334 ] } },
{ "type": "Feature", "properties": { "SerialNum": "OC3CL200103", "Gu": "강동구", "Address": "서울특별시 강동구 길동 157-10", "Height": 4.6, "Ylat": 37.54049414, "Xlon": 127.1482071, "coords": "(127.1482071, 37.54049414)" }, "geometry": { "type": "Point", "coordinates": [ 127.1482071, 37.54049414 ] } },
{ "type": "Feature", "properties": { "SerialNum": "OC3CL200104", "Gu": "강북구", "Address": "서울특별시 강북구 수유동 32-2", "Height": 3.3, "Ylat": 37.64061679, "Xlon": 127.021637, "coords": "(127.021637, 37.64061679)" }, "geometry": { "type": "Point", "coordinates": [ 127.021637, 37.64061679 ] } },
{ "type": "Feature", "properties": { "SerialNum": "OC3CL200105", "Gu": "강동구", "Address": "서울특별시 강동구 상일동 325-1", "Height": 4.4, "Ylat": 37.54771228, "Xlon": 127.1726824, "coords": "(127.1726824, 37.54771228)" }, "geometry": { "type": "Point", "coordinates": [ 127.1726824, 37.54771228 ] } },
{ "type": "Feature", "properties": { "SerialNum": "OC3CL200106", "Gu": "강동구", "Address": "서울특별시 강동구 성내동 500", "Height": 4.4, "Ylat": 37.53312245, "Xlon": 127.1323931, "coords": "(127.1323931, 37.53312245)" }, "geometry": { "type": "Point", "coordinates": [ 127.1323931, 37.53312245 ] } },
{ "type": "Feature", "properties": { "SerialNum": "OC3CL200107", "Gu": "강동구", "Address": "서울특별시 강동구 천호동 233-48", "Height": 4.3, "Ylat": 37.54825641, "Xlon": 127.1368244, "coords": "(127.1368244, 37.54825641)" }, "geometry": { "type": "Point", "coordinates": [ 127.1368244, 37.54825641 ] } },
{ "type": "Feature", "properties": { "SerialNum": "OC3CL200108", "Gu": "강동구", "Address": "서울특별시 강동구 고덕동 289-4", "Height": 4.4, "Ylat": 37.56062598, "Xlon": 127.157431, "coords": "(127.157431, 37.56062598)" }, "geometry": { "type": "Point", "coordinates": [ 127.157431, 37.56062598 ] } },
{ "type": "Feature", "properties": { "SerialNum": "OC3CL200109", "Gu": "양천구", "Address": "서울특별시 양천구 신월동 9-2", "Height": 3.8, "Ylat": 37.5421903, "Xlon": 126.8290816, "coords": "(126.8290816, 37.5421903)" }, "geometry": { "type": "Point", "coordinates": [ 126.8290816, 37.5421903 ] } },
{ "type": "Feature", "properties": { "SerialNum": "OC3CL200110", "Gu": "강동구", "Address": "서울특별시 강동구 암사동 458", "Height": 4.5, "Ylat": 37.55465728, "Xlon": 127.1328591, "coords": "(127.1328591, 37.55465728)" }, "geometry": { "type": "Point", "coordinates": [ 127.1328591, 37.55465728 ] } },
{ "type": "Feature", "properties": { "SerialNum": "OC3CL200111", "Gu": "양천구", "Address": "서울특별시 양천구 신월동 957-13", "Height": 4.0, "Ylat": 37.52014221, "Xlon": 126.8316555, "coords": "(126.8316555, 37.52014221)" }, "geometry": { "type": "Point", "coordinates": [ 126.8316555, 37.52014221 ] } },
{ "type": "Feature", "properties": { "SerialNum": "OC3CL200112", "Gu": "양천구", "Address": "서울특별시 양천구 신정동 190-5", "Height": 3.4, "Ylat": 37.50589814, "Xlon": 126.8642202, "coords": "(126.8642202, 37.50589814)" }, "geometry": { "type": "Point", "coordinates": [ 126.8642202, 37.50589814 ] } },
{ "type": "Feature", "properties": { "SerialNum": "OC3CL200113", "Gu": "양천구", "Address": "서울특별시 양천구 신정동 1277", "Height": 4.7, "Ylat": 37.51133256, "Xlon": 126.8520614, "coords": "(126.8520614, 37.51133256)" }, "geometry": { "type": "Point", "coordinates": [ 126.8520614, 37.51133256 ] } },
{ "type": "Feature", "properties": { "SerialNum": "OC3CL200114", "Gu": "강동구", "Address": "서울특별시 강동구 천호동 316-4", "Height": 4.7, "Ylat": 37.54799097, "Xlon": 127.1261418, "coords": "(127.1261418, 37.54799097)" }, "geometry": { "type": "Point", "coordinates": [ 127.1261418, 37.54799097 ] } },
{ "type": "Feature", "properties": { "SerialNum": "OC3CL200115", "Gu": "양천구", "Address": "서울특별시 양천구 목동 543-15", "Height": 4.2, "Ylat": 37.5436034, "Xlon": 126.8738447, "coords": "(126.8738447, 37.5436034)" }, "geometry": { "type": "Point", "coordinates": [ 126.8738447, 37.5436034 ] } },
{ "type": "Feature", "properties": { "SerialNum": "OC3CL200116", "Gu": "동작구", "Address": "서울특별시 동작구 상도동 279-328", "Height": 3.6, "Ylat": 37.49622929, "Xlon": 126.9385648, "coords": "(126.9385648, 37.49622929)" }, "geometry": { "type": "Point", "coordinates": [ 126.9385648, 37.49622929 ] } },
{ "type": "Feature", "properties": { "SerialNum": "OC3CL200117", "Gu": "강동구", "Address": "서울특별시 강동구 상일동 507", "Height": 4.4, "Ylat": 37.55087372, "Xlon": 127.1775763, "coords": "(127.1775763, 37.55087372)" }, "geometry": { "type": "Point", "coordinates": [ 127.1775763, 37.55087372 ] } },
{ "type": "Feature", "properties": { "SerialNum": "OC3CL200118", "Gu": "동작구", "Address": "서울특별시 동작구 사당동 419-24", "Height": 3.5, "Ylat": 37.47885234, "Xlon": 126.9756084, "coords": "(126.9756084, 37.47885234)" }, "geometry": { "type": "Point", "coordinates": [ 126.9756084, 37.47885234 ] } },
{ "type": "Feature", "properties": { "SerialNum": "OC3CL200119", "Gu": "동작구", "Address": "서울특별시 동작구 상도동 299-156", "Height": 3.7, "Ylat": 37.49460854, "Xlon": 126.9327849, "coords": "(126.9327849, 37.49460854)" }, "geometry": { "type": "Point", "coordinates": [ 126.9327849, 37.49460854 ] } },
{ "type": "Feature", "properties": { "SerialNum": "OC3CL200120", "Gu": "동작구", "Address": "서울특별시 동작구 신대방동 602-10", "Height": 3.8, "Ylat": 37.49011052, "Xlon": 126.9097343, "coords": "(126.9097343, 37.49011052)" }, "geometry": { "type": "Point", "coordinates": [ 126.9097343, 37.49011052 ] } },
{ "type": "Feature", "properties": { "SerialNum": "OC3CL200121", "Gu": "도봉구", "Address": "서울특별시 도봉구 창동442-2", "Height": 3.4, "Ylat": 37.64292463, "Xlon": 127.0410278, "coords": "(127.0410278, 37.64292463)" }, "geometry": { "type": "Point", "coordinates": [ 127.0410278, 37.64292463 ] } },
{ "type": "Feature", "properties": { "SerialNum": "OC3CL200122", "Gu": "도봉구", "Address": "서울특별시 도봉구 쌍문동 720-1", "Height": 3.2, "Ylat": 37.65714093, "Xlon": 127.0284523, "coords": "(127.0284523, 37.65714093)" }, "geometry": { "type": "Point", "coordinates": [ 127.0284523, 37.65714093 ] } },
{ "type": "Feature", "properties": { "SerialNum": "OC3CL200123", "Gu": "강동구", "Address": "서울특별시 강동구 성내동 449-15", "Height": 4.5, "Ylat": 37.52195425, "Xlon": 127.133721, "coords": "(127.133721, 37.52195425)" }, "geometry": { "type": "Point", "coordinates": [ 127.133721, 37.52195425 ] } },
{ "type": "Feature", "properties": { "SerialNum": "OC3CL200124", "Gu": "도봉구", "Address": "서울특별시 도봉구 쌍문동 81-100", "Height": 3.5, "Ylat": 37.65373165, "Xlon": 127.0335584, "coords": "(127.0335584, 37.65373165)" }, "geometry": { "type": "Point", "coordinates": [ 127.0335584, 37.65373165 ] } },
{ "type": "Feature", "properties": { "SerialNum": "OC3CL200125", "Gu": "도봉구", "Address": "서울특별시 도봉구 방학동 722-2", "Height": 3.0, "Ylat": 37.66369367, "Xlon": 127.0486212, "coords": "(127.0486212, 37.66369367)" }, "geometry": { "type": "Point", "coordinates": [ 127.0486212, 37.66369367 ] } },
{ "type": "Feature", "properties": { "SerialNum": "OC3CL200126", "Gu": "중구", "Address": "서울특별시 중구 남대문로4가 29", "Height": 3.0, "Ylat": 37.55967397, "Xlon": 126.9748398, "coords": "(126.9748398, 37.55967397)" }, "geometry": { "type": "Point", "coordinates": [ 126.9748398, 37.55967397 ] } },
{ "type": "Feature", "properties": { "SerialNum": "OC3CL200127", "Gu": "중구", "Address": "서울특별시 중구 남대문로5가 1-5 ", "Height": 6.0, "Ylat": 37.56027699, "Xlon": 126.975354, "coords": "(126.975354, 37.56027699)" }, "geometry": { "type": "Point", "coordinates": [ 126.975354, 37.56027699 ] } },
{ "type": "Feature", "properties": { "SerialNum": "OC3CL200128", "Gu": "도봉구", "Address": "서울특별시 도봉구 도봉동 599-41", "Height": 3.5, "Ylat": 37.67501401, "Xlon": 127.0426672, "coords": "(127.0426672, 37.67501401)" }, "geometry": { "type": "Point", "coordinates": [ 127.0426672, 37.67501401 ] } },
{ "type": "Feature", "properties": { "SerialNum": "OC3CL200129", "Gu": "강북구", "Address": "서울특별시 강북구 번동 248", "Height": 3.1, "Ylat": 37.62331968, "Xlon": 127.0460579, "coords": "(127.0460579, 37.62331968)" }, "geometry": { "type": "Point", "coordinates": [ 127.0460579, 37.62331968 ] } },
{ "type": "Feature", "properties": { "SerialNum": "OC3CL200130", "Gu": "강북구", "Address": "서울특별시 강북구 미아동 791-1549", "Height": 3.9, "Ylat": 37.62523296, "Xlon": 127.0138596, "coords": "(127.0138596, 37.62523296)" }, "geometry": { "type": "Point", "coordinates": [ 127.0138596, 37.62523296 ] } },
{ "type": "Feature", "properties": { "SerialNum": "OC3CL200131", "Gu": "강동구", "Address": "서울특별시 강동구 강일동 601-1", "Height": 4.5, "Ylat": 37.56320788, "Xlon": 127.1723485, "coords": "(127.1723485, 37.56320788)" }, "geometry": { "type": "Point", "coordinates": [ 127.1723485, 37.56320788 ] } },
{ "type": "Feature", "properties": { "SerialNum": "OC3CL200132", "Gu": "강북구", "Address": "서울특별시 강북구 수유동 535-228", "Height": 4.4, "Ylat": 37.64400709, "Xlon": 127.0039409, "coords": "(127.0039409, 37.64400709)" }, "geometry": { "type": "Point", "coordinates": [ 127.0039409, 37.64400709 ] } },
{ "type": "Feature", "properties": { "SerialNum": "OC3CL200133", "Gu": "강북구", "Address": "서울특별시 강북구 미아동 61-17", "Height": 3.5, "Ylat": 37.6146516, "Xlon": 127.028974, "coords": "(127.028974, 37.6146516)" }, "geometry": { "type": "Point", "coordinates": [ 127.028974, 37.6146516 ] } },
{ "type": "Feature", "properties": { "SerialNum": "OC3CL200134", "Gu": "강북구", "Address": "서울특별시 강북구 번동 417-58", "Height": 3.4, "Ylat": 37.63736615, "Xlon": 127.0291526, "coords": "(127.0291526, 37.63736615)" }, "geometry": { "type": "Point", "coordinates": [ 127.0291526, 37.63736615 ] } },
{ "type": "Feature", "properties": { "SerialNum": "OC3CL200135", "Gu": "강남구", "Address": "서울특별시 강남구 대치동 78-28", "Height": 3.8, "Ylat": 37.50182482, "Xlon": 127.0708615, "coords": "(127.0708615, 37.50182482)" }, "geometry": { "type": "Point", "coordinates": [ 127.0708615, 37.50182482 ] } },
{ "type": "Feature", "properties": { "SerialNum": "OC3CL200136", "Gu": "강북구", "Address": "서울특별시 강북구 수유동 719-2", "Height": 2.4, "Ylat": 37.6471793, "Xlon": 127.0246187, "coords": "(127.0246187, 37.6471793)" }, "geometry": { "type": "Point", "coordinates": [ 127.0246187, 37.6471793 ] } },
{ "type": "Feature", "properties": { "SerialNum": "OC3CL200137", "Gu": "도봉구", "Address": "서울특별시 도봉구 창동 743-2", "Height": 3.6, "Ylat": 37.66079952, "Xlon": 127.0507561, "coords": "(127.0507561, 37.66079952)" }, "geometry": { "type": "Point", "coordinates": [ 127.0507561, 37.66079952 ] } },
{ "type": "Feature", "properties": { "SerialNum": "OC3CL200138", "Gu": "서대문구", "Address": "서울특별시 서대문구 홍제동 287-261", "Height": 3.9, "Ylat": 37.59771864, "Xlon": 126.9500063, "coords": "(126.9500063, 37.59771864)" }, "geometry": { "type": "Point", "coordinates": [ 126.9500063, 37.59771864 ] } },
{ "type": "Feature", "properties": { "SerialNum": "OC3CL200139", "Gu": "양천구", "Address": "서울특별시 양천구 신정동 330-8", "Height": 3.5, "Ylat": 37.51418744, "Xlon": 126.8767166, "coords": "(126.8767166, 37.51418744)" }, "geometry": { "type": "Point", "coordinates": [ 126.8767166, 37.51418744 ] } },
{ "type": "Feature", "properties": { "SerialNum": "OC3CL200140", "Gu": "강남구", "Address": "서울특별시 강남구 일원동 246-13", "Height": 4.1, "Ylat": 37.47948708, "Xlon": 127.0797096, "coords": "(127.0797096, 37.47948708)" }, "geometry": { "type": "Point", "coordinates": [ 127.0797096, 37.47948708 ] } },
{ "type": "Feature", "properties": { "SerialNum": "OC3CL200141", "Gu": "강남구", "Address": "서울특별시 강남구 수서동 720", "Height": 4.8, "Ylat": 37.4886613, "Xlon": 127.1067158, "coords": "(127.1067158, 37.4886613)" }, "geometry": { "type": "Point", "coordinates": [ 127.1067158, 37.4886613 ] } },
{ "type": "Feature", "properties": { "SerialNum": "OC3CL200142", "Gu": "광진구", "Address": "서울특별시 광진구 중곡동 485-7", "Height": 4.1, "Ylat": 37.56718217, "Xlon": 127.0771395, "coords": "(127.0771395, 37.56718217)" }, "geometry": { "type": "Point", "coordinates": [ 127.0771395, 37.56718217 ] } },
{ "type": "Feature", "properties": { "SerialNum": "OC3CL200143", "Gu": "광진구", "Address": "서울특별시 광진구 중곡동 72-59", "Height": 2.9, "Ylat": 37.56233608, "Xlon": 127.0960647, "coords": "(127.0960647, 37.56233608)" }, "geometry": { "type": "Point", "coordinates": [ 127.0960647, 37.56233608 ] } },
{ "type": "Feature", "properties": { "SerialNum": "OC3CL200144", "Gu": "노원구", "Address": "서울특별시 노원구 월계동 472-49", "Height": 2.9, "Ylat": 37.61649398, "Xlon": 127.059657, "coords": "(127.059657, 37.61649398)" }, "geometry": { "type": "Point", "coordinates": [ 127.059657, 37.61649398 ] } },
{ "type": "Feature", "properties": { "SerialNum": "OC3CL200145", "Gu": "도봉구", "Address": "서울특별시 도봉구 창동 516-4", "Height": 3.2, "Ylat": 37.63330095, "Xlon": 127.0393869, "coords": "(127.0393869, 37.63330095)" }, "geometry": { "type": "Point", "coordinates": [ 127.0393869, 37.63330095 ] } },
{ "type": "Feature", "properties": { "SerialNum": "OC3CL200146", "Gu": "서대문구", "Address": "서울특별시 서대문구 홍제동 44-633", "Height": 3.3, "Ylat": 37.57847645, "Xlon": 126.9503206, "coords": "(126.9503206, 37.57847645)" }, "geometry": { "type": "Point", "coordinates": [ 126.9503206, 37.57847645 ] } },
{ "type": "Feature", "properties": { "SerialNum": "OC3CL200147", "Gu": "서대문구", "Address": "서울특별시 서대문구 홍제동 266-271", "Height": 3.4, "Ylat": 37.59224961, "Xlon": 126.9451617, "coords": "(126.9451617, 37.59224961)" }, "geometry": { "type": "Point", "coordinates": [ 126.9451617, 37.59224961 ] } },
{ "type": "Feature", "properties": { "SerialNum": "OC3CL200148", "Gu": "서대문구", "Address": "서울특별시 서대문구 홍은동 275-36", "Height": 3.1, "Ylat": 37.57949301, "Xlon": 126.9341688, "coords": "(126.9341688, 37.57949301)" }, "geometry": { "type": "Point", "coordinates": [ 126.9341688, 37.57949301 ] } },
{ "type": "Feature", "properties": { "SerialNum": "OC3CL200149", "Gu": "서대문구", "Address": "서울특별시 서대문구 북가좌동 352-1", "Height": 3.8, "Ylat": 37.58357273, "Xlon": 126.910461, "coords": "(126.910461, 37.58357273)" }, "geometry": { "type": "Point", "coordinates": [ 126.910461, 37.58357273 ] } },
{ "type": "Feature", "properties": { "SerialNum": "OC3CL200150", "Gu": "서대문구", "Address": "서울특별시 서대문구 북가좌동 408-1", "Height": 3.6, "Ylat": 37.5771163, "Xlon": 126.9036178, "coords": "(126.9036178, 37.5771163)" }, "geometry": { "type": "Point", "coordinates": [ 126.9036178, 37.5771163 ] } },
{ "type": "Feature", "properties": { "SerialNum": "OC3CL200151", "Gu": "양천구", "Address": "서울특별시 양천구 신정동 산 102", "Height": 4.5, "Ylat": 37.50999269, "Xlon": 126.8546924, "coords": "(126.8546924, 37.50999269)" }, "geometry": { "type": "Point", "coordinates": [ 126.8546924, 37.50999269 ] } },
{ "type": "Feature", "properties": { "SerialNum": "OC3CL200152", "Gu": "은평구", "Address": "서울특별시 은평구 응암동 122-32", "Height": 3.3, "Ylat": 37.59563579, "Xlon": 126.9156191, "coords": "(126.9156191, 37.59563579)" }, "geometry": { "type": "Point", "coordinates": [ 126.9156191, 37.59563579 ] } },
{ "type": "Feature", "properties": { "SerialNum": "OC3CL200153", "Gu": "종로구", "Address": "서울특별시 종로구 신영동 130-8", "Height": 4.0, "Ylat": 37.60164926, "Xlon": 126.9614109, "coords": "(126.9614109, 37.60164926)" }, "geometry": { "type": "Point", "coordinates": [ 126.9614109, 37.60164926 ] } },
{ "type": "Feature", "properties": { "SerialNum": "OC3CL200154", "Gu": "종로구", "Address": "서울특별시 종로구 평창동 산6-17", "Height": 3.3, "Ylat": 37.60180763, "Xlon": 126.98117, "coords": "(126.98117, 37.60180763)" }, "geometry": { "type": "Point", "coordinates": [ 126.98117, 37.60180763 ] } },
{ "type": "Feature", "properties": { "SerialNum": "OC3CL200155", "Gu": "강남구", "Address": "서울특별시 강남구 논현동 2", "Height": 2.5, "Ylat": 37.51637194, "Xlon": 127.0208385, "coords": "(127.0208385, 37.51637194)" }, "geometry": { "type": "Point", "coordinates": [ 127.0208385, 37.51637194 ] } },
{ "type": "Feature", "properties": { "SerialNum": "OC3CL200156", "Gu": "강남구", "Address": "서울특별시 강남구 논현동 66", "Height": 4.1, "Ylat": 37.51889789, "Xlon": 127.0286532, "coords": "(127.0286532, 37.51889789)" }, "geometry": { "type": "Point", "coordinates": [ 127.0286532, 37.51889789 ] } },
{ "type": "Feature", "properties": { "SerialNum": "OC3CL200157", "Gu": "강남구", "Address": "서울특별시 강남구 수서동362-9", "Height": 4.1, "Ylat": 37.49238125, "Xlon": 127.0945893, "coords": "(127.0945893, 37.49238125)" }, "geometry": { "type": "Point", "coordinates": [ 127.0945893, 37.49238125 ] } },
{ "type": "Feature", "properties": { "SerialNum": "OC3CL200158", "Gu": "강동구", "Address": "서울특별시 강동구 둔촌동 180-2", "Height": 4.3, "Ylat": 37.51939359, "Xlon": 127.1393182, "coords": "(127.1393182, 37.51939359)" }, "geometry": { "type": "Point", "coordinates": [ 127.1393182, 37.51939359 ] } },
{ "type": "Feature", "properties": { "SerialNum": "OC3CL200159", "Gu": "구로구", "Address": "서울특별시 구로구 오류동 산42-40", "Height": 3.5, "Ylat": 37.48581097, "Xlon": 126.830672, "coords": "(126.830672, 37.48581097)" }, "geometry": { "type": "Point", "coordinates": [ 126.830672, 37.48581097 ] } },
{ "type": "Feature", "properties": { "SerialNum": "OC3CL200160", "Gu": "노원구", "Address": "서울특별시 노원구 상계동 730", "Height": 4.1, "Ylat": 37.65334887, "Xlon": 127.0606327, "coords": "(127.0606327, 37.65334887)" }, "geometry": { "type": "Point", "coordinates": [ 127.0606327, 37.65334887 ] } },
{ "type": "Feature", "properties": { "SerialNum": "OC3CL200161", "Gu": "도봉구", "Address": "서울특별시 도봉구 도봉동 299", "Height": 3.4, "Ylat": 37.68886228, "Xlon": 127.0454035, "coords": "(127.0454035, 37.68886228)" }, "geometry": { "type": "Point", "coordinates": [ 127.0454035, 37.68886228 ] } },
{ "type": "Feature", "properties": { "SerialNum": "OC3CL200162", "Gu": "서초구", "Address": "서울특별시 서초구 방배동 1027-6", "Height": 3.6, "Ylat": 37.47467186, "Xlon": 127.0004762, "coords": "(127.0004762, 37.47467186)" }, "geometry": { "type": "Point", "coordinates": [ 127.0004762, 37.47467186 ] } },
{ "type": "Feature", "properties": { "SerialNum": "OC3CL200163", "Gu": "서초구", "Address": "서울특별시 서초구 양재동 221-9", "Height": 3.6, "Ylat": 37.46072485, "Xlon": 127.035673, "coords": "(127.035673, 37.46072485)" }, "geometry": { "type": "Point", "coordinates": [ 127.035673, 37.46072485 ] } },
{ "type": "Feature", "properties": { "SerialNum": "OC3CL200164", "Gu": "성동구", "Address": "서울특별시 성동구 용답동 236-4", "Height": 4.5, "Ylat": 37.56058905, "Xlon": 127.0697265, "coords": "(127.0697265, 37.56058905)" }, "geometry": { "type": "Point", "coordinates": [ 127.0697265, 37.56058905 ] } },
{ "type": "Feature", "properties": { "SerialNum": "OC3CL200165", "Gu": "송파구", "Address": "서울특별시 송파구 문정동 73-10", "Height": 3.8, "Ylat": 37.4803649, "Xlon": 127.1256449, "coords": "(127.1256449, 37.4803649)" }, "geometry": { "type": "Point", "coordinates": [ 127.1256449, 37.4803649 ] } },
{ "type": "Feature", "properties": { "SerialNum": "OC3CL200166", "Gu": "양천구", "Address": "서울특별시 양천구 신정동 328-5", "Height": 4.4, "Ylat": 37.5132245, "Xlon": 126.867697, "coords": "(126.867697, 37.5132245)" }, "geometry": { "type": "Point", "coordinates": [ 126.867697, 37.5132245 ] } },
{ "type": "Feature", "properties": { "SerialNum": "OC3CL200167", "Gu": "영등포구", "Address": "서울특별시 영등포구 양평동1가 165", "Height": 3.6, "Ylat": 37.52259054, "Xlon": 126.8888651, "coords": "(126.8888651, 37.52259054)" }, "geometry": { "type": "Point", "coordinates": [ 126.8888651, 37.52259054 ] } },
{ "type": "Feature", "properties": { "SerialNum": "OC3CL200168", "Gu": "은평구", "Address": "서울특별시 은평구 응암동 87-7", "Height": 4.2, "Ylat": 37.60039676, "Xlon": 126.922413, "coords": "(126.922413, 37.60039676)" }, "geometry": { "type": "Point", "coordinates": [ 126.922413, 37.60039676 ] } },
{ "type": "Feature", "properties": { "SerialNum": "OC3CL200169", "Gu": "중랑구", "Address": "서울특별시 중랑구 신내동 256-24", "Height": 3.9, "Ylat": 37.62027046, "Xlon": 127.1061538, "coords": "(127.1061538, 37.62027046)" }, "geometry": { "type": "Point", "coordinates": [ 127.1061538, 37.62027046 ] } },
{ "type": "Feature", "properties": { "SerialNum": "OC3CL200170", "Gu": "강남구", "Address": "서울특별시 강남구 논현동 130-9", "Height": 5.0, "Ylat": 37.51256716, "Xlon": 127.0312446, "coords": "(127.0312446, 37.51256716)" }, "geometry": { "type": "Point", "coordinates": [ 127.0312446, 37.51256716 ] } },
{ "type": "Feature", "properties": { "SerialNum": "OC3CL200171", "Gu": "강동구", "Address": "서울특별시 강동구 양재대로 1716", "Height": 3.9, "Ylat": 37.55869892, "Xlon": 127.1443342, "coords": "(127.1443342, 37.55869892)" }, "geometry": { "type": "Point", "coordinates": [ 127.1443342, 37.55869892 ] } },
{ "type": "Feature", "properties": { "SerialNum": "OC3CL200172", "Gu": "강서구", "Address": "서울특별시 강서구 화곡동 340-54", "Height": 3.7, "Ylat": 37.53273493, "Xlon": 126.8463106, "coords": "(126.8463106, 37.53273493)" }, "geometry": { "type": "Point", "coordinates": [ 126.8463106, 37.53273493 ] } },
{ "type": "Feature", "properties": { "SerialNum": "OC3CL200173", "Gu": "관악구", "Address": "서울특별시 관악구 조원동 537-33", "Height": 3.0, "Ylat": 37.48248677, "Xlon": 126.9141546, "coords": "(126.9141546, 37.48248677)" }, "geometry": { "type": "Point", "coordinates": [ 126.9141546, 37.48248677 ] } },
{ "type": "Feature", "properties": { "SerialNum": "OC3CL200174", "Gu": "영등포구", "Address": "서울특별시 영등포구 대림동 990-1", "Height": 3.5, "Ylat": 37.48897429, "Xlon": 126.906033, "coords": "(126.906033, 37.48897429)" }, "geometry": { "type": "Point", "coordinates": [ 126.906033, 37.48897429 ] } },
{ "type": "Feature", "properties": { "SerialNum": "OC3CL200175", "Gu": "강남구", "Address": "서울특별시 강남구 개포동 1268", "Height": 4.0, "Ylat": 37.47950461, "Xlon": 127.050789, "coords": "(127.050789, 37.47950461)" }, "geometry": { "type": "Point", "coordinates": [ 127.050789, 37.47950461 ] } },
{ "type": "Feature", "properties": { "SerialNum": "OC3CL200176", "Gu": "강남구", "Address": "서울특별시 강남구 세곡동 120-7", "Height": 3.8, "Ylat": 37.46507552, "Xlon": 127.1069185, "coords": "(127.1069185, 37.46507552)" }, "geometry": { "type": "Point", "coordinates": [ 127.1069185, 37.46507552 ] } },
{ "type": "Feature", "properties": { "SerialNum": "OC3CL200177", "Gu": "강서구", "Address": "서울특별시 강서구 개화동 246-16", "Height": 3.3, "Ylat": 37.58870084, "Xlon": 126.802494, "coords": "(126.802494, 37.58870084)" }, "geometry": { "type": "Point", "coordinates": [ 126.802494, 37.58870084 ] } },
{ "type": "Feature", "properties": { "SerialNum": "OC3CL200178", "Gu": "강서구", "Address": "서울특별시 강서구 마곡동 731-199", "Height": 4.2, "Ylat": 37.56759287, "Xlon": 126.8189344, "coords": "(126.8189344, 37.56759287)" }, "geometry": { "type": "Point", "coordinates": [ 126.8189344, 37.56759287 ] } },
{ "type": "Feature", "properties": { "SerialNum": "OC3CL200179", "Gu": "강서구", "Address": "서울특별시 강서구 마곡동 749-4", "Height": 3.9, "Ylat": 37.55712905, "Xlon": 126.8225904, "coords": "(126.8225904, 37.55712905)" }, "geometry": { "type": "Point", "coordinates": [ 126.8225904, 37.55712905 ] } },
{ "type": "Feature", "properties": { "SerialNum": "OC3CL200180", "Gu": "강서구", "Address": "서울특별시 강서구 마곡동 770-7", "Height": 4.0, "Ylat": 37.56421468, "Xlon": 126.833869, "coords": "(126.833869, 37.56421468)" }, "geometry": { "type": "Point", "coordinates": [ 126.833869, 37.56421468 ] } },
{ "type": "Feature", "properties": { "SerialNum": "OC3CL200181", "Gu": "강서구", "Address": "서울특별시 강서구 가양2동 1481", "Height": 3.4, "Ylat": 37.56474481, "Xlon": 126.8534306, "coords": "(126.8534306, 37.56474481)" }, "geometry": { "type": "Point", "coordinates": [ 126.8534306, 37.56474481 ] } },
{ "type": "Feature", "properties": { "SerialNum": "OC3CL200182", "Gu": "강서구", "Address": "서울특별시 강서구 염창동 240-52", "Height": 3.5, "Ylat": 37.55734709, "Xlon": 126.8659034, "coords": "(126.8659034, 37.55734709)" }, "geometry": { "type": "Point", "coordinates": [ 126.8659034, 37.55734709 ] } },
{ "type": "Feature", "properties": { "SerialNum": "OC3CL200183", "Gu": "강서구", "Address": "서울특별시 강서구 염창동 53-1", "Height": 3.5, "Ylat": 37.55351048, "Xlon": 126.8711211, "coords": "(126.8711211, 37.55351048)" }, "geometry": { "type": "Point", "coordinates": [ 126.8711211, 37.55351048 ] } },
{ "type": "Feature", "properties": { "SerialNum": "OC3CL200184", "Gu": "강서구", "Address": "서울특별시 강서구 등촌동 522-1", "Height": 3.5, "Ylat": 37.54736269, "Xlon": 126.8613494, "coords": "(126.8613494, 37.54736269)" }, "geometry": { "type": "Point", "coordinates": [ 126.8613494, 37.54736269 ] } },
{ "type": "Feature", "properties": { "SerialNum": "OC3CL200185", "Gu": "강서구", "Address": "서울특별시 강서구 염창동 263(105동)", "Height": 3.4, "Ylat": 37.54866094, "Xlon": 126.8740316, "coords": "(126.8740316, 37.54866094)" }, "geometry": { "type": "Point", "coordinates": [ 126.8740316, 37.54866094 ] } },
{ "type": "Feature", "properties": { "SerialNum": "OC3CL200186", "Gu": "강서구", "Address": "서울특별시 강서구 마곡동 9", "Height": 3.5, "Ylat": 37.57245123, "Xlon": 126.8371703, "coords": "(126.8371703, 37.57245123)" }, "geometry": { "type": "Point", "coordinates": [ 126.8371703, 37.57245123 ] } },
{ "type": "Feature", "properties": { "SerialNum": "OC3CL200187", "Gu": "강서구", "Address": "서울특별시 강서구 방화동 278-31", "Height": 5.9, "Ylat": 37.57318498, "Xlon": 126.8164742, "coords": "(126.8164742, 37.57318498)" }, "geometry": { "type": "Point", "coordinates": [ 126.8164742, 37.57318498 ] } },
{ "type": "Feature", "properties": { "SerialNum": "OC3CL200188", "Gu": "강서구", "Address": "서울특별시 강서구 방화동 247-21", "Height": 5.9, "Ylat": 37.56735274, "Xlon": 126.816375, "coords": "(126.816375, 37.56735274)" }, "geometry": { "type": "Point", "coordinates": [ 126.816375, 37.56735274 ] } },
{ "type": "Feature", "properties": { "SerialNum": "OC3CL200189", "Gu": "관악구", "Address": "서울특별시 관악구 신림동 1627-11", "Height": 3.0, "Ylat": 37.47906596, "Xlon": 126.9265235, "coords": "(126.9265235, 37.47906596)" }, "geometry": { "type": "Point", "coordinates": [ 126.9265235, 37.47906596 ] } },
{ "type": "Feature", "properties": { "SerialNum": "OC3CL200190", "Gu": "광진구", "Address": "서울특별시 광진구 광장동 328-2", "Height": 2.4, "Ylat": 37.54768518, "Xlon": 127.106921, "coords": "(127.106921, 37.54768518)" }, "geometry": { "type": "Point", "coordinates": [ 127.106921, 37.54768518 ] } },
{ "type": "Feature", "properties": { "SerialNum": "OC3CL200191", "Gu": "구로구", "Address": "서울특별시 구로구 수궁동 온수동67-15", "Height": 3.3, "Ylat": 37.49402783, "Xlon": 126.8182427, "coords": "(126.8182427, 37.49402783)" }, "geometry": { "type": "Point", "coordinates": [ 126.8182427, 37.49402783 ] } },
{ "type": "Feature", "properties": { "SerialNum": "OC3CL200192", "Gu": "구로구", "Address": "서울특별시 구로구 천왕동 278-2", "Height": 3.6, "Ylat": 37.48329114, "Xlon": 126.8414001, "coords": "(126.8414001, 37.48329114)" }, "geometry": { "type": "Point", "coordinates": [ 126.8414001, 37.48329114 ] } },
{ "type": "Feature", "properties": { "SerialNum": "OC3CL200193", "Gu": "구로구", "Address": "서울특별시 구로구 구로동 810-2", "Height": 3.6, "Ylat": 37.48482285, "Xlon": 126.9014312, "coords": "(126.9014312, 37.48482285)" }, "geometry": { "type": "Point", "coordinates": [ 126.9014312, 37.48482285 ] } },
{ "type": "Feature", "properties": { "SerialNum": "OC3CL200194", "Gu": "종로구", "Address": "서울특별시 종로구 신문로1가 135-2", "Height": 3.8, "Ylat": 37.56997647, "Xlon": 126.9755166, "coords": "(126.9755166, 37.56997647)" }, "geometry": { "type": "Point", "coordinates": [ 126.9755166, 37.56997647 ] } },
{ "type": "Feature", "properties": { "SerialNum": "OC3CL200195", "Gu": "동대문구", "Address": "서울특별시 동대문구 이문동 353", "Height": 3.8, "Ylat": 37.60487617, "Xlon": 127.0708027, "coords": "(127.0708027, 37.60487617)" }, "geometry": { "type": "Point", "coordinates": [ 127.0708027, 37.60487617 ] } },
{ "type": "Feature", "properties": { "SerialNum": "OC3CL200196", "Gu": "동대문구", "Address": "서울특별시 동대문구 청량리동 203-167", "Height": 3.7, "Ylat": 37.58753193, "Xlon": 127.0425772, "coords": "(127.0425772, 37.58753193)" }, "geometry": { "type": "Point", "coordinates": [ 127.0425772, 37.58753193 ] } },
{ "type": "Feature", "properties": { "SerialNum": "OC3CL200197", "Gu": "동대문구", "Address": "서울특별시 동대문구 청량리동 283", "Height": 3.8, "Ylat": 37.5810902, "Xlon": 127.0450743, "coords": "(127.0450743, 37.5810902)" }, "geometry": { "type": "Point", "coordinates": [ 127.0450743, 37.5810902 ] } },
{ "type": "Feature", "properties": { "SerialNum": "OC3CL200198", "Gu": "성북구", "Address": "서울특별시 성북구 하월곡동 29-133", "Height": 3.5, "Ylat": 37.60363281, "Xlon": 127.0398362, "coords": "(127.0398362, 37.60363281)" }, "geometry": { "type": "Point", "coordinates": [ 127.0398362, 37.60363281 ] } },
{ "type": "Feature", "properties": { "SerialNum": "OC3CL200199", "Gu": "성북구", "Address": "서울특별시 성북구 종암동 10-236", "Height": 3.1, "Ylat": 37.59544076, "Xlon": 127.036678, "coords": "(127.036678, 37.59544076)" }, "geometry": { "type": "Point", "coordinates": [ 127.036678, 37.59544076 ] } },
{ "type": "Feature", "properties": { "SerialNum": "OC3CL200200", "Gu": "성북구", "Address": "서울특별시 성북구 정릉동 716-39", "Height": 3.5, "Ylat": 37.61101097, "Xlon": 127.0049249, "coords": "(127.0049249, 37.61101097)" }, "geometry": { "type": "Point", "coordinates": [ 127.0049249, 37.61101097 ] } },
{ "type": "Feature", "properties": { "SerialNum": "OC3CL200201", "Gu": "종로구", "Address": "서울특별시 종로구 종로5가 231-1", "Height": 4.2, "Ylat": 37.57086928, "Xlon": 127.0048453, "coords": "(127.0048453, 37.57086928)" }, "geometry": { "type": "Point", "coordinates": [ 127.0048453, 37.57086928 ] } },
{ "type": "Feature", "properties": { "SerialNum": "OC3CL200202", "Gu": "중랑구", "Address": "서울특별시 중랑구 중화동 209", "Height": 3.77, "Ylat": 37.59427032, "Xlon": 127.0741118, "coords": "(127.0741118, 37.59427032)" }, "geometry": { "type": "Point", "coordinates": [ 127.0741118, 37.59427032 ] } },
{ "type": "Feature", "properties": { "SerialNum": "OC3CL200203", "Gu": "중랑구", "Address": "서울특별시 중랑구 망우동 산52", "Height": 3.3, "Ylat": 37.60016479, "Xlon": 127.1119185, "coords": "(127.1119185, 37.60016479)" }, "geometry": { "type": "Point", "coordinates": [ 127.1119185, 37.60016479 ] } },
{ "type": "Feature", "properties": { "SerialNum": "OC3CL200204", "Gu": "은평구", "Address": "서울특별시 은평구 구산동 202-1", "Height": 4.3, "Ylat": 37.61414691, "Xlon": 126.9101602, "coords": "(126.9101602, 37.61414691)" }, "geometry": { "type": "Point", "coordinates": [ 126.9101602, 37.61414691 ] } },
{ "type": "Feature", "properties": { "SerialNum": "OC3CL200205", "Gu": "강동구", "Address": "서울특별시 강동구 성내동 19-1", "Height": 3.9, "Ylat": 37.53677728, "Xlon": 127.1287361, "coords": "(127.1287361, 37.53677728)" }, "geometry": { "type": "Point", "coordinates": [ 127.1287361, 37.53677728 ] } },
{ "type": "Feature", "properties": { "SerialNum": "OC3CL200206", "Gu": "노원구", "Address": "서울특별시 노원구 중계동 425-8", "Height": 3.9, "Ylat": 37.65341035, "Xlon": 127.0737034, "coords": "(127.0737034, 37.65341035)" }, "geometry": { "type": "Point", "coordinates": [ 127.0737034, 37.65341035 ] } },
{ "type": "Feature", "properties": { "SerialNum": "OC3CL200207", "Gu": "송파구", "Address": "서울특별시 송파구 가락동 128-8", "Height": 4.1, "Ylat": 37.49495788, "Xlon": 127.1241947, "coords": "(127.1241947, 37.49495788)" }, "geometry": { "type": "Point", "coordinates": [ 127.1241947, 37.49495788 ] } },
{ "type": "Feature", "properties": { "SerialNum": "OC3CL200208", "Gu": "송파구", "Address": "서울특별시 송파구 장지동 861", "Height": 4.3, "Ylat": 37.47981602, "Xlon": 127.1353152, "coords": "(127.1353152, 37.47981602)" }, "geometry": { "type": "Point", "coordinates": [ 127.1353152, 37.47981602 ] } },
{ "type": "Feature", "properties": { "SerialNum": "OC3CL200209", "Gu": "은평구", "Address": "서울특별시 은평구 진관동 108-9", "Height": 3.8, "Ylat": 37.63440727, "Xlon": 126.9152589, "coords": "(126.9152589, 37.63440727)" }, "geometry": { "type": "Point", "coordinates": [ 126.9152589, 37.63440727 ] } },
{ "type": "Feature", "properties": { "SerialNum": "OC3CL200210", "Gu": "종로구", "Address": "서울특별시 종로구 서린동 151-4", "Height": 5.4, "Ylat": 37.56938249, "Xlon": 126.9784821, "coords": "(126.9784821, 37.56938249)" }, "geometry": { "type": "Point", "coordinates": [ 126.9784821, 37.56938249 ] } },
{ "type": "Feature", "properties": { "SerialNum": "OC3CL200211", "Gu": "종로구", "Address": "서울특별시 종로구 서린동 42-8 ", "Height": 5.0, "Ylat": 37.56921374, "Xlon": 126.9821286, "coords": "(126.9821286, 37.56921374)" }, "geometry": { "type": "Point", "coordinates": [ 126.9821286, 37.56921374 ] } },
{ "type": "Feature", "properties": { "SerialNum": "OC3CL200212", "Gu": "중구", "Address": "서울특별시 중구 태평로1가 54-3 ", "Height": 5.5, "Ylat": 37.56604753, "Xlon": 126.9773997, "coords": "(126.9773997, 37.56604753)" }, "geometry": { "type": "Point", "coordinates": [ 126.9773997, 37.56604753 ] } },
{ "type": "Feature", "properties": { "SerialNum": "OC3CL200213", "Gu": "노원구", "Address": "서울특별시 노원구 상계동 1171-2", "Height": 2.9, "Ylat": 37.68427838, "Xlon": 127.0552843, "coords": "(127.0552843, 37.68427838)" }, "geometry": { "type": "Point", "coordinates": [ 127.0552843, 37.68427838 ] } },
{ "type": "Feature", "properties": { "SerialNum": "OC3CL200214", "Gu": "서대문구", "Address": "서울특별시 서대문구 홍제동 40-63", "Height": 2.3, "Ylat": 37.58068232, "Xlon": 126.9536823, "coords": "(126.9536823, 37.58068232)" }, "geometry": { "type": "Point", "coordinates": [ 126.9536823, 37.58068232 ] } },
{ "type": "Feature", "properties": { "SerialNum": "OC3CL200215", "Gu": "서대문구", "Address": "서울특별시 서대문구 홍제동 294-84", "Height": 3.2, "Ylat": 37.59082129, "Xlon": 126.9409275, "coords": "(126.9409275, 37.59082129)" }, "geometry": { "type": "Point", "coordinates": [ 126.9409275, 37.59082129 ] } },
{ "type": "Feature", "properties": { "SerialNum": "OC3CL200216", "Gu": "성동구", "Address": "서울특별시 성동구 송정동 67-29", "Height": 3.7, "Ylat": 37.54884166, "Xlon": 127.0604063, "coords": "(127.0604063, 37.54884166)" }, "geometry": { "type": "Point", "coordinates": [ 127.0604063, 37.54884166 ] } },
{ "type": "Feature", "properties": { "SerialNum": "OC3CL200217", "Gu": "성동구", "Address": "서울특별시 성동구 송정동 66-32", "Height": 3.8, "Ylat": 37.54889612, "Xlon": 127.0629361, "coords": "(127.0629361, 37.54889612)" }, "geometry": { "type": "Point", "coordinates": [ 127.0629361, 37.54889612 ] } },
{ "type": "Feature", "properties": { "SerialNum": "OC3CL200218", "Gu": "성동구", "Address": "서울특별시 성동구 행당동 6-2", "Height": 3.9, "Ylat": 37.56005301, "Xlon": 127.0410724, "coords": "(127.0410724, 37.56005301)" }, "geometry": { "type": "Point", "coordinates": [ 127.0410724, 37.56005301 ] } },
{ "type": "Feature", "properties": { "SerialNum": "OC3CL200219", "Gu": "종로구", "Address": "서울특별시 종로구 창신동 357", "Height": 3.2, "Ylat": 37.5722213, "Xlon": 127.0135165, "coords": "(127.0135165, 37.5722213)" }, "geometry": { "type": "Point", "coordinates": [ 127.0135165, 37.5722213 ] } },
{ "type": "Feature", "properties": { "SerialNum": "OC3CL200220", "Gu": "종로구", "Address": "서울특별시 종로구 연건동 128-9", "Height": 5.0, "Ylat": 37.57698177, "Xlon": 127.0024889, "coords": "(127.0024889, 37.57698177)" }, "geometry": { "type": "Point", "coordinates": [ 127.0024889, 37.57698177 ] } },
{ "type": "Feature", "properties": { "SerialNum": "OC3CL200221", "Gu": "용산구", "Address": "서울특별시 용산구 용산동5가 2-68", "Height": 4.5, "Ylat": 37.52846761, "Xlon": 126.9701563, "coords": "(126.9701563, 37.52846761)" }, "geometry": { "type": "Point", "coordinates": [ 126.9701563, 37.52846761 ] } },
{ "type": "Feature", "properties": { "SerialNum": "OC3CL200222", "Gu": "성북구", "Address": "서울특별시 성북구 성북동 241-1", "Height": 4.5, "Ylat": 37.59447493, "Xlon": 126.9941895, "coords": "(126.9941895, 37.59447493)" }, "geometry": { "type": "Point", "coordinates": [ 126.9941895, 37.59447493 ] } },
{ "type": "Feature", "properties": { "SerialNum": "OC3CL200223", "Gu": "서초구", "Address": "서울특별시 서초구 반포동 1321", "Height": 4.0, "Ylat": 37.50265195, "Xlon": 126.9810508, "coords": "(126.9810508, 37.50265195)" }, "geometry": { "type": "Point", "coordinates": [ 126.9810508, 37.50265195 ] } },
{ "type": "Feature", "properties": { "SerialNum": "OC3CL200224", "Gu": "서초구", "Address": "서울특별시 서초구 반포동 1323", "Height": 4.0, "Ylat": 37.49975712, "Xlon": 126.9910718, "coords": "(126.9910718, 37.49975712)" }, "geometry": { "type": "Point", "coordinates": [ 126.9910718, 37.49975712 ] } },
{ "type": "Feature", "properties": { "SerialNum": "OC3CL200225", "Gu": "중랑구", "Address": "서울특별시 중랑구 묵동 189-11", "Height": 4.5, "Ylat": 37.60952, "Xlon": 127.072813, "coords": "(127.072813, 37.60952)" }, "geometry": { "type": "Point", "coordinates": [ 127.072813, 37.60952 ] } },
{ "type": "Feature", "properties": { "SerialNum": "OC3CL200227", "Gu": "성동구", "Address": "서울특별시 성동구 행당동 1-27", "Height": 3.0, "Ylat": 37.56124567, "Xlon": 127.0394969, "coords": "(127.0394969, 37.56124567)" }, "geometry": { "type": "Point", "coordinates": [ 127.0394969, 37.56124567 ] } },
{ "type": "Feature", "properties": { "SerialNum": "OC3CL200228", "Gu": "서대문구", "Address": "서울특별시 서대문구 홍제동 294-46", "Height": 3.5, "Ylat": 37.59116011, "Xlon": 126.9430063, "coords": "(126.9430063, 37.59116011)" }, "geometry": { "type": "Point", "coordinates": [ 126.9430063, 37.59116011 ] } },
{ "type": "Feature", "properties": { "SerialNum": "OC3CL200229", "Gu": "서대문구", "Address": "서울특별시 서대문구 현저동 101", "Height": 2.5, "Ylat": 37.57294405, "Xlon": 126.9555847, "coords": "(126.9555847, 37.57294405)" }, "geometry": { "type": "Point", "coordinates": [ 126.9555847, 37.57294405 ] } },
{ "type": "Feature", "properties": { "SerialNum": "OC3CL210099", "Gu": "강동구", "Address": "서울특별시 강동구 암사동 425-181", "Height": 4.5, "Ylat": 37.550423, "Xlon": 127.138631, "coords": "(127.138631, 37.550423)" }, "geometry": { "type": "Point", "coordinates": [ 127.138631, 37.550423 ] } },
{ "type": "Feature", "properties": { "SerialNum": "OC3CL210100", "Gu": "강동구", "Address": "서울특별시 강동구 암사동 477-22", "Height": 4.5, "Ylat": 37.549909, "Xlon": 127.137305, "coords": "(127.137305, 37.549909)" }, "geometry": { "type": "Point", "coordinates": [ 127.137305, 37.549909 ] } },
{ "type": "Feature", "properties": { "SerialNum": "OC3CL210101", "Gu": "강동구", "Address": "서울특별시 강동구 암사동 421-98", "Height": 4.5, "Ylat": 37.550622, "Xlon": 127.140095, "coords": "(127.140095, 37.550622)" }, "geometry": { "type": "Point", "coordinates": [ 127.140095, 37.550622 ] } },
{ "type": "Feature", "properties": { "SerialNum": "OC3CL210102", "Gu": "강동구", "Address": "서울특별시 강동구 성내동 407", "Height": 4.5, "Ylat": 37.532029, "Xlon": 127.132769, "coords": "(127.132769, 37.532029)" }, "geometry": { "type": "Point", "coordinates": [ 127.132769, 37.532029 ] } },
{ "type": "Feature", "properties": { "SerialNum": "OC3CL210103", "Gu": "강동구", "Address": "서울특별시 강동구 천호동 397-19", "Height": 4.5, "Ylat": 37.541089, "Xlon": 127.129889, "coords": "(127.129889, 37.541089)" }, "geometry": { "type": "Point", "coordinates": [ 127.129889, 37.541089 ] } },
{ "type": "Feature", "properties": { "SerialNum": "OC3CL210104", "Gu": "강동구", "Address": "서울특별시 강동구 천호동 280-15", "Height": 4.5, "Ylat": 37.543161, "Xlon": 127.131666, "coords": "(127.131666, 37.543161)" }, "geometry": { "type": "Point", "coordinates": [ 127.131666, 37.543161 ] } },
{ "type": "Feature", "properties": { "SerialNum": "OC3CL210105", "Gu": "강동구", "Address": "서울특별시 강동구 천호동 297-2", "Height": 4.5, "Ylat": 37.545103, "Xlon": 127.133085, "coords": "(127.133085, 37.545103)" }, "geometry": { "type": "Point", "coordinates": [ 127.133085, 37.545103 ] } },
{ "type": "Feature", "properties": { "SerialNum": "OC3CL210106", "Gu": "강동구", "Address": "서울특별시 강동구 천호동 294-24", "Height": 4.5, "Ylat": 37.545721, "Xlon": 127.133549, "coords": "(127.133549, 37.545721)" }, "geometry": { "type": "Point", "coordinates": [ 127.133549, 37.545721 ] } },
{ "type": "Feature", "properties": { "SerialNum": "OC3CL210107", "Gu": "강동구", "Address": "서울특별시 강동구 성내동 422", "Height": 4.5, "Ylat": 37.528351, "Xlon": 127.130989, "coords": "(127.130989, 37.528351)" }, "geometry": { "type": "Point", "coordinates": [ 127.130989, 37.528351 ] } },
{ "type": "Feature", "properties": { "SerialNum": "OC3CL210108", "Gu": "강동구", "Address": "서울특별시 강동구 명일동 312-250", "Height": 4.5, "Ylat": 37.550701, "Xlon": 127.143013, "coords": "(127.143013, 37.550701)" }, "geometry": { "type": "Point", "coordinates": [ 127.143013, 37.550701 ] } },
{ "type": "Feature", "properties": { "SerialNum": "OC3CL210109", "Gu": "강동구", "Address": "서울특별시 강동구 천호동 293-13", "Height": 4.5, "Ylat": 37.546531, "Xlon": 127.134149, "coords": "(127.134149, 37.546531)" }, "geometry": { "type": "Point", "coordinates": [ 127.134149, 37.546531 ] } },
{ "type": "Feature", "properties": { "SerialNum": "OC3CL210110", "Gu": "강동구", "Address": "서울특별시 강동구 명일동 322-1", "Height": 4.5, "Ylat": 37.550796, "Xlon": 127.141564, "coords": "(127.141564, 37.550796)" }, "geometry": { "type": "Point", "coordinates": [ 127.141564, 37.550796 ] } },
{ "type": "Feature", "properties": { "SerialNum": "OC3CL210111", "Gu": "강동구", "Address": "서울특별시 강동구 성내동 409-1", "Height": 4.5, "Ylat": 37.530749, "Xlon": 127.132152, "coords": "(127.132152, 37.530749)" }, "geometry": { "type": "Point", "coordinates": [ 127.132152, 37.530749 ] } },
{ "type": "Feature", "properties": { "SerialNum": "OC3CL210112", "Gu": "강동구", "Address": "서울특별시 강동구 암사동 487-37", "Height": 4.5, "Ylat": 37.549217, "Xlon": 127.136581, "coords": "(127.136581, 37.549217)" }, "geometry": { "type": "Point", "coordinates": [ 127.136581, 37.549217 ] } },
{ "type": "Feature", "properties": { "SerialNum": "OC3CL210113", "Gu": "강동구", "Address": "서울특별시 강동구 암사동 487-30", "Height": 4.5, "Ylat": 37.548443, "Xlon": 127.135745, "coords": "(127.135745, 37.548443)" }, "geometry": { "type": "Point", "coordinates": [ 127.135745, 37.548443 ] } },
{ "type": "Feature", "properties": { "SerialNum": "OC3CL210114", "Gu": "강동구", "Address": "서울특별시 강동구 성내동 382-6", "Height": 4.5, "Ylat": 37.533958, "Xlon": 127.133712, "coords": "(127.133712, 37.533958)" }, "geometry": { "type": "Point", "coordinates": [ 127.133712, 37.533958 ] } },
{ "type": "Feature", "properties": { "SerialNum": "OC3CL210115", "Gu": "강동구", "Address": "서울특별시 강동구 성내동 435-12", "Height": 4.5, "Ylat": 37.525606, "Xlon": 127.129661, "coords": "(127.129661, 37.525606)" }, "geometry": { "type": "Point", "coordinates": [ 127.129661, 37.525606 ] } },
{ "type": "Feature", "properties": { "SerialNum": "V02Q1940043", "Gu": "구로구", "Address": "서울특별시 구로구 구로동 704-13", "Height": 3.8, "Ylat": 37.49002864, "Xlon": 126.8835537, "coords": "(126.8835537, 37.49002864)" }, "geometry": { "type": "Point", "coordinates": [ 126.8835537, 37.49002864 ] } },
{ "type": "Feature", "properties": { "SerialNum": "V02Q1940044", "Gu": "구로구", "Address": "서울특별시 구로구 구로동 317-20", "Height": 3.8, "Ylat": 37.49183115, "Xlon": 126.8891554, "coords": "(126.8891554, 37.49183115)" }, "geometry": { "type": "Point", "coordinates": [ 126.8891554, 37.49183115 ] } },
{ "type": "Feature", "properties": { "SerialNum": "V02Q1940045", "Gu": "구로구", "Address": "서울특별시 구로구 구로동 1259", "Height": 3.5, "Ylat": 37.48958795, "Xlon": 126.8764395, "coords": "(126.8764395, 37.48958795)" }, "geometry": { "type": "Point", "coordinates": [ 126.8764395, 37.48958795 ] } },
{ "type": "Feature", "properties": { "SerialNum": "V02Q1940046", "Gu": "구로구", "Address": "서울특별시 구로구 수궁동 212-15", "Height": 3.1, "Ylat": 37.49440262, "Xlon": 126.8314721, "coords": "(126.8314721, 37.49440262)" }, "geometry": { "type": "Point", "coordinates": [ 126.8314721, 37.49440262 ] } },
{ "type": "Feature", "properties": { "SerialNum": "V02Q1940047", "Gu": "구로구", "Address": "서울특별시 구로구 가리봉동 132-53", "Height": 3.8, "Ylat": 37.48214478, "Xlon": 126.8893389, "coords": "(126.8893389, 37.48214478)" }, "geometry": { "type": "Point", "coordinates": [ 126.8893389, 37.48214478 ] } },
{ "type": "Feature", "properties": { "SerialNum": "V02Q1940049", "Gu": "동대문구", "Address": "서울특별시 동대문구 용두동 792-6", "Height": 3.5, "Ylat": 37.57668991, "Xlon": 127.0362773, "coords": "(127.0362773, 37.57668991)" }, "geometry": { "type": "Point", "coordinates": [ 127.0362773, 37.57668991 ] } },
{ "type": "Feature", "properties": { "SerialNum": "V02Q1940050", "Gu": "구로구", "Address": "서울특별시 구로구 개봉동 139-54", "Height": 3.3, "Ylat": 37.49954171, "Xlon": 126.8507733, "coords": "(126.8507733, 37.49954171)" }, "geometry": { "type": "Point", "coordinates": [ 126.8507733, 37.49954171 ] } },
{ "type": "Feature", "properties": { "SerialNum": "V02Q1940051", "Gu": "구로구", "Address": "서울특별시 구로구 개봉동 375-4", "Height": 3.4, "Ylat": 37.48455732, "Xlon": 126.8537096, "coords": "(126.8537096, 37.48455732)" }, "geometry": { "type": "Point", "coordinates": [ 126.8537096, 37.48455732 ] } },
{ "type": "Feature", "properties": { "SerialNum": "V02Q1940052", "Gu": "구로구", "Address": "서울특별시 구로구 구로동 777-34", "Height": 3.7, "Ylat": 37.48718079, "Xlon": 126.8896263, "coords": "(126.8896263, 37.48718079)" }, "geometry": { "type": "Point", "coordinates": [ 126.8896263, 37.48718079 ] } },
{ "type": "Feature", "properties": { "SerialNum": "V02Q1940053", "Gu": "중구", "Address": "서울특별시 중구 소공동 91-1", "Height": 3.5, "Ylat": 37.56504075, "Xlon": 126.9788859, "coords": "(126.9788859, 37.56504075)" }, "geometry": { "type": "Point", "coordinates": [ 126.9788859, 37.56504075 ] } },
{ "type": "Feature", "properties": { "SerialNum": "V02Q1940054", "Gu": "구로구", "Address": "서울특별시 구로구 개봉동 328-23", "Height": 3.8, "Ylat": 37.49049118, "Xlon": 126.8553777, "coords": "(126.8553777, 37.49049118)" }, "geometry": { "type": "Point", "coordinates": [ 126.8553777, 37.49049118 ] } },
{ "type": "Feature", "properties": { "SerialNum": "V02Q1940055", "Gu": "구로구", "Address": "서울특별시 구로구 구로동 50-9", "Height": 3.1, "Ylat": 37.50111379, "Xlon": 126.8923967, "coords": "(126.8923967, 37.50111379)" }, "geometry": { "type": "Point", "coordinates": [ 126.8923967, 37.50111379 ] } },
{ "type": "Feature", "properties": { "SerialNum": "V02Q1940056", "Gu": "구로구", "Address": "서울특별시 구로구 오류동 182-22", "Height": 3.8, "Ylat": 37.48743033, "Xlon": 126.8385274, "coords": "(126.8385274, 37.48743033)" }, "geometry": { "type": "Point", "coordinates": [ 126.8385274, 37.48743033 ] } },
{ "type": "Feature", "properties": { "SerialNum": "V02Q1940057", "Gu": "구로구", "Address": "서울특별시 구로구 개봉동 416-2", "Height": 3.5, "Ylat": 37.50526429, "Xlon": 126.8451274, "coords": "(126.8451274, 37.50526429)" }, "geometry": { "type": "Point", "coordinates": [ 126.8451274, 37.50526429 ] } },
{ "type": "Feature", "properties": { "SerialNum": "V02Q1940058", "Gu": "동대문구", "Address": "서울특별시 동대문구 전농동 688-8", "Height": 3.3, "Ylat": 37.57977525, "Xlon": 127.0620252, "coords": "(127.0620252, 37.57977525)" }, "geometry": { "type": "Point", "coordinates": [ 127.0620252, 37.57977525 ] } },
{ "type": "Feature", "properties": { "SerialNum": "V02Q1940059", "Gu": "강남구", "Address": "서울특별시 강남구 일원동 688", "Height": 3.6, "Ylat": 37.48952988, "Xlon": 127.0753463, "coords": "(127.0753463, 37.48952988)" }, "geometry": { "type": "Point", "coordinates": [ 127.0753463, 37.48952988 ] } },
{ "type": "Feature", "properties": { "SerialNum": "V02Q1940060", "Gu": "강남구", "Address": "서울특별시 강남구 일원동 735-1", "Height": 3.0, "Ylat": 37.48339724, "Xlon": 127.0862339, "coords": "(127.0862339, 37.48339724)" }, "geometry": { "type": "Point", "coordinates": [ 127.0862339, 37.48339724 ] } },
{ "type": "Feature", "properties": { "SerialNum": "V02Q1940061", "Gu": "구로구", "Address": "서울특별시 구로구 구로동 614-3", "Height": 3.0, "Ylat": 37.50527996, "Xlon": 126.8746217, "coords": "(126.8746217, 37.50527996)" }, "geometry": { "type": "Point", "coordinates": [ 126.8746217, 37.50527996 ] } },
{ "type": "Feature", "properties": { "SerialNum": "V02Q1940062", "Gu": "강서구", "Address": "서울특별시 강서구 화곡동 산 60-1", "Height": 3.5, "Ylat": 37.54882399, "Xlon": 126.8434758, "coords": "(126.8434758, 37.54882399)" }, "geometry": { "type": "Point", "coordinates": [ 126.8434758, 37.54882399 ] } },
{ "type": "Feature", "properties": { "SerialNum": "V02Q1940063", "Gu": "강남구", "Address": "서울특별시 강남구 삼성동 111-32", "Height": 3.6, "Ylat": 37.51606159, "Xlon": 127.0618801, "coords": "(127.0618801, 37.51606159)" }, "geometry": { "type": "Point", "coordinates": [ 127.0618801, 37.51606159 ] } },
{ "type": "Feature", "properties": { "SerialNum": "V02Q1940064", "Gu": "성북구", "Address": "서울특별시 성북구 장위동 45-4", "Height": 3.9, "Ylat": 37.61107942, "Xlon": 127.0555166, "coords": "(127.0555166, 37.61107942)" }, "geometry": { "type": "Point", "coordinates": [ 127.0555166, 37.61107942 ] } },
{ "type": "Feature", "properties": { "SerialNum": "V02Q1940065", "Gu": "구로구", "Address": "서울특별시 구로구 고척동 283-2", "Height": 3.7, "Ylat": 37.50568303, "Xlon": 126.8586102, "coords": "(126.8586102, 37.50568303)" }, "geometry": { "type": "Point", "coordinates": [ 126.8586102, 37.50568303 ] } },
{ "type": "Feature", "properties": { "SerialNum": "V02Q1940066", "Gu": "강서구", "Address": "서울특별시 강서구 가양동 36-3", "Height": 3.3, "Ylat": 37.56721931, "Xlon": 126.8475165, "coords": "(126.8475165, 37.56721931)" }, "geometry": { "type": "Point", "coordinates": [ 126.8475165, 37.56721931 ] } },
{ "type": "Feature", "properties": { "SerialNum": "V02Q1940067", "Gu": "서초구", "Address": "서울특별시 서초구 내곡동 122", "Height": 2.9, "Ylat": 37.4543351, "Xlon": 127.0618843, "coords": "(127.0618843, 37.4543351)" }, "geometry": { "type": "Point", "coordinates": [ 127.0618843, 37.4543351 ] } },
{ "type": "Feature", "properties": { "SerialNum": "V02Q1940068", "Gu": "서초구", "Address": "서울특별시 서초구 방배동 838-1", "Height": 3.7, "Ylat": 37.4913371, "Xlon": 126.9923309, "coords": "(126.9923309, 37.4913371)" }, "geometry": { "type": "Point", "coordinates": [ 126.9923309, 37.4913371 ] } },
{ "type": "Feature", "properties": { "SerialNum": "V02Q1940069", "Gu": "강서구", "Address": "서울특별시 강서구 염창동 276-9", "Height": 3.6, "Ylat": 37.54980487, "Xlon": 126.8702252, "coords": "(126.8702252, 37.54980487)" }, "geometry": { "type": "Point", "coordinates": [ 126.8702252, 37.54980487 ] } },
{ "type": "Feature", "properties": { "SerialNum": "V02Q1940070", "Gu": "구로구", "Address": "서울특별시 구로구 항동 1-10", "Height": 3.9, "Ylat": 37.48683268, "Xlon": 126.8237121, "coords": "(126.8237121, 37.48683268)" }, "geometry": { "type": "Point", "coordinates": [ 126.8237121, 37.48683268 ] } },
{ "type": "Feature", "properties": { "SerialNum": "V02Q1940071", "Gu": "양천구", "Address": "서울특별시 양천구 신월동 43-4", "Height": 3.2, "Ylat": 37.53623879, "Xlon": 126.8242707, "coords": "(126.8242707, 37.53623879)" }, "geometry": { "type": "Point", "coordinates": [ 126.8242707, 37.53623879 ] } },
{ "type": "Feature", "properties": { "SerialNum": "V02Q1940072", "Gu": "강서구", "Address": "서울특별시 강서구 화곡동 999-6", "Height": 3.8, "Ylat": 37.55183644, "Xlon": 126.8458607, "coords": "(126.8458607, 37.55183644)" }, "geometry": { "type": "Point", "coordinates": [ 126.8458607, 37.55183644 ] } },
{ "type": "Feature", "properties": { "SerialNum": "V02Q1940073", "Gu": "구로구", "Address": "서울특별시 구로구 구로동 426-83", "Height": 3.7, "Ylat": 37.49382607, "Xlon": 126.8840768, "coords": "(126.8840768, 37.49382607)" }, "geometry": { "type": "Point", "coordinates": [ 126.8840768, 37.49382607 ] } },
{ "type": "Feature", "properties": { "SerialNum": "V02Q1940074", "Gu": "영등포구", "Address": "서울특별시 영등포구 당산동1가 16-1", "Height": 3.7, "Ylat": 37.52031382, "Xlon": 126.8969952, "coords": "(126.8969952, 37.52031382)" }, "geometry": { "type": "Point", "coordinates": [ 126.8969952, 37.52031382 ] } },
{ "type": "Feature", "properties": { "SerialNum": "V02Q1940075", "Gu": "노원구", "Address": "서울특별시 노원구 상계동 660", "Height": 4.2, "Ylat": 37.66738408, "Xlon": 127.0534565, "coords": "(127.0534565, 37.66738408)" }, "geometry": { "type": "Point", "coordinates": [ 127.0534565, 37.66738408 ] } },
{ "type": "Feature", "properties": { "SerialNum": "V02Q1940076", "Gu": "노원구", "Address": "서울특별시 노원구 공릉동 587-8", "Height": 3.6, "Ylat": 37.62202353, "Xlon": 127.0774806, "coords": "(127.0774806, 37.62202353)" }, "geometry": { "type": "Point", "coordinates": [ 127.0774806, 37.62202353 ] } },
{ "type": "Feature", "properties": { "SerialNum": "V02Q1940077", "Gu": "영등포구", "Address": "서울특별시 영등포구 대림동 1059-49", "Height": 3.4, "Ylat": 37.49095208, "Xlon": 126.8965606, "coords": "(126.8965606, 37.49095208)" }, "geometry": { "type": "Point", "coordinates": [ 126.8965606, 37.49095208 ] } },
{ "type": "Feature", "properties": { "SerialNum": "V02Q1940078", "Gu": "강서구", "Address": "서울특별시 강서구 화곡동 1064", "Height": 4.1, "Ylat": 37.54254621, "Xlon": 126.8403227, "coords": "(126.8403227, 37.54254621)" }, "geometry": { "type": "Point", "coordinates": [ 126.8403227, 37.54254621 ] } },
{ "type": "Feature", "properties": { "SerialNum": "V02Q1940079", "Gu": "강남구", "Address": "서울특별시 강남구 일원동 707", "Height": 3.4, "Ylat": 37.49410245, "Xlon": 127.0822094, "coords": "(127.0822094, 37.49410245)" }, "geometry": { "type": "Point", "coordinates": [ 127.0822094, 37.49410245 ] } },
{ "type": "Feature", "properties": { "SerialNum": "V02Q1940080", "Gu": "강남구", "Address": "서울특별시 강남구 삼성동 111-138", "Height": 3.8, "Ylat": 37.51310182, "Xlon": 127.0458183, "coords": "(127.0458183, 37.51310182)" }, "geometry": { "type": "Point", "coordinates": [ 127.0458183, 37.51310182 ] } },
{ "type": "Feature", "properties": { "SerialNum": "V02Q1940081", "Gu": "동대문구", "Address": "서울특별시 동대문구 답십리동 1004-10", "Height": 3.9, "Ylat": 37.57132426, "Xlon": 127.0510025, "coords": "(127.0510025, 37.57132426)" }, "geometry": { "type": "Point", "coordinates": [ 127.0510025, 37.57132426 ] } },
{ "type": "Feature", "properties": { "SerialNum": "V02Q1940082", "Gu": "강남구", "Address": "서울특별시 강남구 일원동 700-8", "Height": 3.6, "Ylat": 37.49550759, "Xlon": 127.0857485, "coords": "(127.0857485, 37.49550759)" }, "geometry": { "type": "Point", "coordinates": [ 127.0857485, 37.49550759 ] } },
{ "type": "Feature", "properties": { "SerialNum": "V02Q1940083", "Gu": "구로구", "Address": "서울특별시 구로구 개봉동 480", "Height": 3.7, "Ylat": 37.49137096, "Xlon": 126.8607797, "coords": "(126.8607797, 37.49137096)" }, "geometry": { "type": "Point", "coordinates": [ 126.8607797, 37.49137096 ] } },
{ "type": "Feature", "properties": { "SerialNum": "V02Q1940084", "Gu": "동대문구", "Address": "서울특별시 동대문구 전농동 산 32-20", "Height": 3.8, "Ylat": 37.57837517, "Xlon": 127.0624354, "coords": "(127.0624354, 37.57837517)" }, "geometry": { "type": "Point", "coordinates": [ 127.0624354, 37.57837517 ] } },
{ "type": "Feature", "properties": { "SerialNum": "V02Q1940085", "Gu": "동대문구", "Address": "서울특별시 동대문구 장안동 478-11", "Height": 3.4, "Ylat": 37.56833563, "Xlon": 127.0658885, "coords": "(127.0658885, 37.56833563)" }, "geometry": { "type": "Point", "coordinates": [ 127.0658885, 37.56833563 ] } },
{ "type": "Feature", "properties": { "SerialNum": "V02Q1940086", "Gu": "구로구", "Address": "서울특별시 구로구 고척동 73-3", "Height": 3.7, "Ylat": 37.49775403, "Xlon": 126.8633107, "coords": "(126.8633107, 37.49775403)" }, "geometry": { "type": "Point", "coordinates": [ 126.8633107, 37.49775403 ] } },
{ "type": "Feature", "properties": { "SerialNum": "V02Q1940087", "Gu": "성북구", "Address": "서울특별시 성북구 장위동 16-85", "Height": 2.9, "Ylat": 37.61570454, "Xlon": 127.0588487, "coords": "(127.0588487, 37.61570454)" }, "geometry": { "type": "Point", "coordinates": [ 127.0588487, 37.61570454 ] } },
{ "type": "Feature", "properties": { "SerialNum": "V02Q1940088", "Gu": "동대문구", "Address": "서울특별시 동대문구 답십리동 530-10", "Height": 3.6, "Ylat": 37.56782032, "Xlon": 127.0525347, "coords": "(127.0525347, 37.56782032)" }, "geometry": { "type": "Point", "coordinates": [ 127.0525347, 37.56782032 ] } },
{ "type": "Feature", "properties": { "SerialNum": "V02Q1940089", "Gu": "동대문구", "Address": "서울특별시 동대문구 회기동 3-2", "Height": 4.4, "Ylat": 37.59192024, "Xlon": 127.0546253, "coords": "(127.0546253, 37.59192024)" }, "geometry": { "type": "Point", "coordinates": [ 127.0546253, 37.59192024 ] } },
{ "type": "Feature", "properties": { "SerialNum": "V02Q1940090", "Gu": "구로구", "Address": "서울특별시 구로구 온수동 53-11", "Height": 4.5, "Ylat": 37.49167186, "Xlon": 126.8231311, "coords": "(126.8231311, 37.49167186)" }, "geometry": { "type": "Point", "coordinates": [ 126.8231311, 37.49167186 ] } },
{ "type": "Feature", "properties": { "SerialNum": "V02Q1940091", "Gu": "도봉구", "Address": "서울특별시 도봉구 창동 274-13", "Height": 3.0, "Ylat": 37.656045, "Xlon": 127.0437189, "coords": "(127.0437189, 37.656045)" }, "geometry": { "type": "Point", "coordinates": [ 127.0437189, 37.656045 ] } },
{ "type": "Feature", "properties": { "SerialNum": "V02Q1940092", "Gu": "동대문구", "Address": "서울특별시 동대문구 답십리동 807", "Height": 3.8, "Ylat": 37.57114055, "Xlon": 127.0645218, "coords": "(127.0645218, 37.57114055)" }, "geometry": { "type": "Point", "coordinates": [ 127.0645218, 37.57114055 ] } },
{ "type": "Feature", "properties": { "SerialNum": "V02Q1940093", "Gu": "강서구", "Address": "서울특별시 강서구 방화동 134-20", "Height": 3.3, "Ylat": 37.57784085, "Xlon": 126.818892, "coords": "(126.818892, 37.57784085)" }, "geometry": { "type": "Point", "coordinates": [ 126.818892, 37.57784085 ] } },
{ "type": "Feature", "properties": { "SerialNum": "V02Q1940094", "Gu": "강남구", "Address": "서울특별시 강남구 세곡동 110-5", "Height": 3.7, "Ylat": 37.46682943, "Xlon": 127.1088929, "coords": "(127.1088929, 37.46682943)" }, "geometry": { "type": "Point", "coordinates": [ 127.1088929, 37.46682943 ] } },
{ "type": "Feature", "properties": { "SerialNum": "V02Q1940095", "Gu": "양천구", "Address": "서울특별시 양천구 목동 868", "Height": 3.8, "Ylat": 37.53291626, "Xlon": 126.8683909, "coords": "(126.8683909, 37.53291626)" }, "geometry": { "type": "Point", "coordinates": [ 126.8683909, 37.53291626 ] } },
{ "type": "Feature", "properties": { "SerialNum": "V02Q1940096", "Gu": "동대문구", "Address": "서울특별시 동대문구 장안동 413-3", "Height": 3.3, "Ylat": 37.56298757, "Xlon": 127.0595872, "coords": "(127.0595872, 37.56298757)" }, "geometry": { "type": "Point", "coordinates": [ 127.0595872, 37.56298757 ] } },
{ "type": "Feature", "properties": { "SerialNum": "V02Q1940097", "Gu": "동대문구", "Address": "서울특별시 동대문구 휘경동 43-179", "Height": 3.3, "Ylat": 37.58522784, "Xlon": 127.0655327, "coords": "(127.0655327, 37.58522784)" }, "geometry": { "type": "Point", "coordinates": [ 127.0655327, 37.58522784 ] } },
{ "type": "Feature", "properties": { "SerialNum": "V02Q1940098", "Gu": "강남구", "Address": "서울특별시 강남구 수서동 727", "Height": 4.0, "Ylat": 37.48676489, "Xlon": 127.1018579, "coords": "(127.1018579, 37.48676489)" }, "geometry": { "type": "Point", "coordinates": [ 127.1018579, 37.48676489 ] } },
{ "type": "Feature", "properties": { "SerialNum": "V02Q1940099", "Gu": "동대문구", "Address": "서울특별시 동대문구 휘경동 183-432", "Height": 3.6, "Ylat": 37.5905138, "Xlon": 127.0569302, "coords": "(127.0569302, 37.5905138)" }, "geometry": { "type": "Point", "coordinates": [ 127.0569302, 37.5905138 ] } },
{ "type": "Feature", "properties": { "SerialNum": "V02Q1940100", "Gu": "강남구", "Address": "서울특별시 강남구 일원동 3-16", "Height": 3.5, "Ylat": 37.49497896, "Xlon": 127.0931442, "coords": "(127.0931442, 37.49497896)" }, "geometry": { "type": "Point", "coordinates": [ 127.0931442, 37.49497896 ] } },
{ "type": "Feature", "properties": { "SerialNum": "V02Q1940101", "Gu": "동대문구", "Address": "서울특별시 동대문구 용두동 129-3", "Height": 3.5, "Ylat": 37.57335724, "Xlon": 127.0325399, "coords": "(127.0325399, 37.57335724)" }, "geometry": { "type": "Point", "coordinates": [ 127.0325399, 37.57335724 ] } },
{ "type": "Feature", "properties": { "SerialNum": "V02Q1940102", "Gu": "강남구", "Address": "서울특별시 강남구 일원동 739-2", "Height": 3.8, "Ylat": 37.48083459, "Xlon": 127.0809688, "coords": "(127.0809688, 37.48083459)" }, "geometry": { "type": "Point", "coordinates": [ 127.0809688, 37.48083459 ] } },
{ "type": "Feature", "properties": { "SerialNum": "V02Q1940103", "Gu": "강서구", "Address": "서울특별시 강서구 방화동 산 103-2", "Height": 3.4, "Ylat": 37.57904271, "Xlon": 126.8184922, "coords": "(126.8184922, 37.57904271)" }, "geometry": { "type": "Point", "coordinates": [ 126.8184922, 37.57904271 ] } },
{ "type": "Feature", "properties": { "SerialNum": "V02Q1940104", "Gu": "강서구", "Address": "서울특별시 강서구 등촌동 653-8", "Height": 3.7, "Ylat": 37.55515562, "Xlon": 126.858558, "coords": "(126.858558, 37.55515562)" }, "geometry": { "type": "Point", "coordinates": [ 126.858558, 37.55515562 ] } },
{ "type": "Feature", "properties": { "SerialNum": "V02Q1940105", "Gu": "강서구", "Address": "서울특별시 강서구 방화동 281-20", "Height": 3.5, "Ylat": 37.57287575, "Xlon": 126.8151904, "coords": "(126.8151904, 37.57287575)" }, "geometry": { "type": "Point", "coordinates": [ 126.8151904, 37.57287575 ] } },
{ "type": "Feature", "properties": { "SerialNum": "V02Q1940106", "Gu": "동대문구", "Address": "서울특별시 동대문구 전농동 679", "Height": 4.1, "Ylat": 37.57758084, "Xlon": 127.0471936, "coords": "(127.0471936, 37.57758084)" }, "geometry": { "type": "Point", "coordinates": [ 127.0471936, 37.57758084 ] } },
{ "type": "Feature", "properties": { "SerialNum": "V02Q1940107", "Gu": "강북구", "Address": "서울특별시 강북구 미아동 1354-15", "Height": 3.8, "Ylat": 37.62077412, "Xlon": 127.0123532, "coords": "(127.0123532, 37.62077412)" }, "geometry": { "type": "Point", "coordinates": [ 127.0123532, 37.62077412 ] } },
{ "type": "Feature", "properties": { "SerialNum": "V02Q1940108", "Gu": "동대문구", "Address": "서울특별시 동대문구 이문동 357", "Height": 3.6, "Ylat": 37.60344403, "Xlon": 127.0655316, "coords": "(127.0655316, 37.60344403)" }, "geometry": { "type": "Point", "coordinates": [ 127.0655316, 37.60344403 ] } },
{ "type": "Feature", "properties": { "SerialNum": "V02Q1940109", "Gu": "동대문구", "Address": "서울특별시 동대문구 휘경동 368-2", "Height": 3.6, "Ylat": 37.59078005, "Xlon": 127.0671123, "coords": "(127.0671123, 37.59078005)" }, "geometry": { "type": "Point", "coordinates": [ 127.0671123, 37.59078005 ] } },
{ "type": "Feature", "properties": { "SerialNum": "V02Q1940110", "Gu": "영등포구", "Address": "서울특별시 영등포구 여의도동 54", "Height": 3.4, "Ylat": 37.51829065, "Xlon": 126.9329653, "coords": "(126.9329653, 37.51829065)" }, "geometry": { "type": "Point", "coordinates": [ 126.9329653, 37.51829065 ] } },
{ "type": "Feature", "properties": { "SerialNum": "V02Q1940111", "Gu": "구로구", "Address": "서울특별시 구로구 신도림동 292-212", "Height": 4.1, "Ylat": 37.50929949, "Xlon": 126.8783801, "coords": "(126.8783801, 37.50929949)" }, "geometry": { "type": "Point", "coordinates": [ 126.8783801, 37.50929949 ] } },
{ "type": "Feature", "properties": { "SerialNum": "V02Q1940112", "Gu": "성동구", "Address": "서울특별시 성동구 송정동 92-29", "Height": 4.1, "Ylat": 37.55650451, "Xlon": 127.0711935, "coords": "(127.0711935, 37.55650451)" }, "geometry": { "type": "Point", "coordinates": [ 127.0711935, 37.55650451 ] } },
{ "type": "Feature", "properties": { "SerialNum": "V02Q1940113", "Gu": "강서구", "Address": "서울특별시 강서구 염창동 208-2", "Height": 3.5, "Ylat": 37.55450397, "Xlon": 126.8741754, "coords": "(126.8741754, 37.55450397)" }, "geometry": { "type": "Point", "coordinates": [ 126.8741754, 37.55450397 ] } },
{ "type": "Feature", "properties": { "SerialNum": "V02Q1940114", "Gu": "강서구", "Address": "서울특별시 강서구 가양동 146-32", "Height": 4.1, "Ylat": 37.56929679, "Xlon": 126.8427325, "coords": "(126.8427325, 37.56929679)" }, "geometry": { "type": "Point", "coordinates": [ 126.8427325, 37.56929679 ] } },
{ "type": "Feature", "properties": { "SerialNum": "V02Q1940115", "Gu": "동대문구", "Address": "서울특별시 동대문구 이문동 354-18", "Height": 3.3, "Ylat": 37.59804281, "Xlon": 127.0655573, "coords": "(127.0655573, 37.59804281)" }, "geometry": { "type": "Point", "coordinates": [ 127.0655573, 37.59804281 ] } },
{ "type": "Feature", "properties": { "SerialNum": "V02Q1940116", "Gu": "동대문구", "Address": "서울특별시 동대문구 신설동 92-34", "Height": 3.8, "Ylat": 37.57554443, "Xlon": 127.023874, "coords": "(127.023874, 37.57554443)" }, "geometry": { "type": "Point", "coordinates": [ 127.023874, 37.57554443 ] } },
{ "type": "Feature", "properties": { "SerialNum": "V02Q1940117", "Gu": "송파구", "Address": "서울특별시 송파구 잠실동 284", "Height": 3.5, "Ylat": 37.50853713, "Xlon": 127.0871417, "coords": "(127.0871417, 37.50853713)" }, "geometry": { "type": "Point", "coordinates": [ 127.0871417, 37.50853713 ] } },
{ "type": "Feature", "properties": { "SerialNum": "V02Q1940118", "Gu": "동대문구", "Address": "서울특별시 동대문구 제기동 190-14", "Height": 4.2, "Ylat": 37.58238909, "Xlon": 127.0314924, "coords": "(127.0314924, 37.58238909)" }, "geometry": { "type": "Point", "coordinates": [ 127.0314924, 37.58238909 ] } },
{ "type": "Feature", "properties": { "SerialNum": "V02Q1940119", "Gu": "동대문구", "Address": "서울특별시 동대문구 장안동 338-1", "Height": 3.6, "Ylat": 37.57014257, "Xlon": 127.072957, "coords": "(127.072957, 37.57014257)" }, "geometry": { "type": "Point", "coordinates": [ 127.072957, 37.57014257 ] } },
{ "type": "Feature", "properties": { "SerialNum": "V02Q1940120", "Gu": "동대문구", "Address": "서울특별시 동대문구 장안동 284-5", "Height": 4.2, "Ylat": 37.57946643, "Xlon": 127.0724464, "coords": "(127.0724464, 37.57946643)" }, "geometry": { "type": "Point", "coordinates": [ 127.0724464, 37.57946643 ] } },
{ "type": "Feature", "properties": { "SerialNum": "V02Q1940121", "Gu": "영등포구", "Address": "서울특별시 영등포구 대림동 738-14", "Height": 3.7, "Ylat": 37.49694974, "Xlon": 126.8977171, "coords": "(126.8977171, 37.49694974)" }, "geometry": { "type": "Point", "coordinates": [ 126.8977171, 37.49694974 ] } },
{ "type": "Feature", "properties": { "SerialNum": "V02Q1940122", "Gu": "동대문구", "Address": "서울특별시 동대문구 청량리동 49-1", "Height": 4.1, "Ylat": 37.58571599, "Xlon": 127.0479117, "coords": "(127.0479117, 37.58571599)" }, "geometry": { "type": "Point", "coordinates": [ 127.0479117, 37.58571599 ] } },
{ "type": "Feature", "properties": { "SerialNum": "V02Q1940123", "Gu": "강남구", "Address": "서울특별시 강남구 대치동 1028-1", "Height": 3.6, "Ylat": 37.49489912, "Xlon": 127.0618427, "coords": "(127.0618427, 37.49489912)" }, "geometry": { "type": "Point", "coordinates": [ 127.0618427, 37.49489912 ] } },
{ "type": "Feature", "properties": { "SerialNum": "V02Q1940124", "Gu": "강서구", "Address": "서울특별시 강서구 내발산동 686-4", "Height": 3.6, "Ylat": 37.55338226, "Xlon": 126.8325758, "coords": "(126.8325758, 37.55338226)" }, "geometry": { "type": "Point", "coordinates": [ 126.8325758, 37.55338226 ] } },
{ "type": "Feature", "properties": { "SerialNum": "V02Q1940125", "Gu": "강서구", "Address": "서울특별시 강서구 방화동 620-32", "Height": 2.9, "Ylat": 37.56267922, "Xlon": 126.8086245, "coords": "(126.8086245, 37.56267922)" }, "geometry": { "type": "Point", "coordinates": [ 126.8086245, 37.56267922 ] } },
{ "type": "Feature", "properties": { "SerialNum": "V02Q1940126", "Gu": "강서구", "Address": "서울특별시 강서구 방화동 318-2", "Height": 3.3, "Ylat": 37.57836214, "Xlon": 126.8159088, "coords": "(126.8159088, 37.57836214)" }, "geometry": { "type": "Point", "coordinates": [ 126.8159088, 37.57836214 ] } },
{ "type": "Feature", "properties": { "SerialNum": "V02Q1940127", "Gu": "영등포구", "Address": "서울특별시 영등포구 당산동6가 337-1", "Height": 3.5, "Ylat": 37.53620112, "Xlon": 126.9012217, "coords": "(126.9012217, 37.53620112)" }, "geometry": { "type": "Point", "coordinates": [ 126.9012217, 37.53620112 ] } },
{ "type": "Feature", "properties": { "SerialNum": "V02Q1940128", "Gu": "노원구", "Address": "서울특별시 노원구 상계동 56-3", "Height": 3.5, "Ylat": 37.67410962, "Xlon": 127.0818401, "coords": "(127.0818401, 37.67410962)" }, "geometry": { "type": "Point", "coordinates": [ 127.0818401, 37.67410962 ] } },
{ "type": "Feature", "properties": { "SerialNum": "V02Q1940129", "Gu": "강남구", "Address": "서울특별시 강남구 대치동 16-1", "Height": 4.0, "Ylat": 37.49765571, "Xlon": 127.0743987, "coords": "(127.0743987, 37.49765571)" }, "geometry": { "type": "Point", "coordinates": [ 127.0743987, 37.49765571 ] } },
{ "type": "Feature", "properties": { "SerialNum": "V02Q1940130", "Gu": "강서구", "Address": "서울특별시 강서구 가양동 1484", "Height": 3.5, "Ylat": 37.56124878, "Xlon": 126.8596643, "coords": "(126.8596643, 37.56124878)" }, "geometry": { "type": "Point", "coordinates": [ 126.8596643, 37.56124878 ] } },
{ "type": "Feature", "properties": { "SerialNum": "V02Q1940131", "Gu": "성북구", "Address": "서울특별시 성북구 동선동3가 89", "Height": 3.7, "Ylat": 37.59448521, "Xlon": 127.0211958, "coords": "(127.0211958, 37.59448521)" }, "geometry": { "type": "Point", "coordinates": [ 127.0211958, 37.59448521 ] } },
{ "type": "Feature", "properties": { "SerialNum": "V02Q1940132", "Gu": "노원구", "Address": "서울특별시 노원구 하계동 251-6", "Height": 3.5, "Ylat": 37.64010401, "Xlon": 127.0729861, "coords": "(127.0729861, 37.64010401)" }, "geometry": { "type": "Point", "coordinates": [ 127.0729861, 37.64010401 ] } },
{ "type": "Feature", "properties": { "SerialNum": "V02Q1940133", "Gu": "영등포구", "Address": "서울특별시 영등포구 양평동4가 93-1", "Height": 3.7, "Ylat": 37.53685591, "Xlon": 126.8948496, "coords": "(126.8948496, 37.53685591)" }, "geometry": { "type": "Point", "coordinates": [ 126.8948496, 37.53685591 ] } },
{ "type": "Feature", "properties": { "SerialNum": "V02Q1940134", "Gu": "광진구", "Address": "서울특별시 광진구 군자동 55-1", "Height": 3.6, "Ylat": 37.55579789, "Xlon": 127.0758197, "coords": "(127.0758197, 37.55579789)" }, "geometry": { "type": "Point", "coordinates": [ 127.0758197, 37.55579789 ] } },
{ "type": "Feature", "properties": { "SerialNum": "V02Q1940135", "Gu": "도봉구", "Address": "서울특별시 도봉구 도봉동 353-29", "Height": 3.3, "Ylat": 37.69099122, "Xlon": 127.0423735, "coords": "(127.0423735, 37.69099122)" }, "geometry": { "type": "Point", "coordinates": [ 127.0423735, 37.69099122 ] } },
{ "type": "Feature", "properties": { "SerialNum": "V02Q1940136", "Gu": "구로구", "Address": "서울특별시 구로구 구로동 733-28", "Height": 4.2, "Ylat": 37.48946749, "Xlon": 126.8848394, "coords": "(126.8848394, 37.48946749)" }, "geometry": { "type": "Point", "coordinates": [ 126.8848394, 37.48946749 ] } },
{ "type": "Feature", "properties": { "SerialNum": "V02Q1940137", "Gu": "강북구", "Address": "서울특별시 강북구 미아동 195-1", "Height": 2.7, "Ylat": 37.62731949, "Xlon": 127.0271506, "coords": "(127.0271506, 37.62731949)" }, "geometry": { "type": "Point", "coordinates": [ 127.0271506, 37.62731949 ] } },
{ "type": "Feature", "properties": { "SerialNum": "V02Q1940138", "Gu": "서대문구", "Address": "서울특별시 서대문구 창천동 18-54", "Height": 3.6, "Ylat": 37.55763712, "Xlon": 126.9392536, "coords": "(126.9392536, 37.55763712)" }, "geometry": { "type": "Point", "coordinates": [ 126.9392536, 37.55763712 ] } },
{ "type": "Feature", "properties": { "SerialNum": "V02Q1940139", "Gu": "은평구", "Address": "서울특별시 은평구 진관동 13-3", "Height": 3.3, "Ylat": 37.64376606, "Xlon": 126.9245654, "coords": "(126.9245654, 37.64376606)" }, "geometry": { "type": "Point", "coordinates": [ 126.9245654, 37.64376606 ] } },
{ "type": "Feature", "properties": { "SerialNum": "V02Q1940140", "Gu": "구로구", "Address": "서울특별시 구로구 고척동 291-1", "Height": 4.4, "Ylat": 37.50248471, "Xlon": 126.8510405, "coords": "(126.8510405, 37.50248471)" }, "geometry": { "type": "Point", "coordinates": [ 126.8510405, 37.50248471 ] } },
{ "type": "Feature", "properties": { "SerialNum": "V02Q1940141", "Gu": "서초구", "Address": "서울특별시 서초구 반포동 550-35", "Height": 3.2, "Ylat": 37.49760629, "Xlon": 127.0013841, "coords": "(127.0013841, 37.49760629)" }, "geometry": { "type": "Point", "coordinates": [ 127.0013841, 37.49760629 ] } },
{ "type": "Feature", "properties": { "SerialNum": "V02Q1940142", "Gu": "강동구", "Address": "서울특별시 강동구 암사동 548", "Height": 4.5, "Ylat": 37.55054502, "Xlon": 127.1278725, "coords": "(127.1278725, 37.55054502)" }, "geometry": { "type": "Point", "coordinates": [ 127.1278725, 37.55054502 ] } },
{ "type": "Feature", "properties": { "SerialNum": "V02Q1940143", "Gu": "성북구", "Address": "서울특별시 성북구 상월곡동 24-150", "Height": 3.5, "Ylat": 37.60585332, "Xlon": 127.0497384, "coords": "(127.0497384, 37.60585332)" }, "geometry": { "type": "Point", "coordinates": [ 127.0497384, 37.60585332 ] } },
{ "type": "Feature", "properties": { "SerialNum": "V02Q1940144", "Gu": "서초구", "Address": "서울특별시 서초구 방배동 921-30", "Height": 3.8, "Ylat": 37.48255634, "Xlon": 126.9946044, "coords": "(126.9946044, 37.48255634)" }, "geometry": { "type": "Point", "coordinates": [ 126.9946044, 37.48255634 ] } },
{ "type": "Feature", "properties": { "SerialNum": "V02Q1940145", "Gu": "강남구", "Address": "서울특별시 강남구 논현동 22", "Height": 3.8, "Ylat": 37.51402419, "Xlon": 127.0216812, "coords": "(127.0216812, 37.51402419)" }, "geometry": { "type": "Point", "coordinates": [ 127.0216812, 37.51402419 ] } },
{ "type": "Feature", "properties": { "SerialNum": "V02Q1940146", "Gu": "노원구", "Address": "서울특별시 노원구 상계동 159-4", "Height": 3.4, "Ylat": 37.66254305, "Xlon": 127.0693112, "coords": "(127.0693112, 37.66254305)" }, "geometry": { "type": "Point", "coordinates": [ 127.0693112, 37.66254305 ] } },